header:
  stamp:
    sec: 52
    nanosec: 164000000
  frame_id: base_link
name:
- elbow_joint
- shoulder_lift_joint
- shoulder_pan_joint
- wrist_1_joint
- wrist_2_joint
- wrist_3_joint
position:
- -6.487532437285612e-08
- -1.5699999571617198
- 1.0095518404877384e-07
- -1.5699997883740777
- -1.1050984334378255e-07
- -1.8955396661360106e-07
velocity:
- -2.710505431213761e-20
- 9.92373094506685e-14
- 1.3552527156068805e-20
- 9.456517058130387e-14
- -5.421010862427522e-20
- -1.0842021724855044e-19
effort:
- -0.017572433833421993
- -0.05044270642382728
- 1.6940658945086007e-18
- -0.002904217972807749
- 0.0008924617822008596
- 6.75481097217898e-20
---
header:
  stamp:
    sec: 52
    nanosec: 165000000
  frame_id: base_link
name:
- elbow_joint
- shoulder_lift_joint
- shoulder_pan_joint
- wrist_1_joint
- wrist_2_joint
- wrist_3_joint
position:
- -6.48753243728561e-08
- -1.5699999571617198
- 1.0095518404877381e-07
- -1.5699997883740777
- -1.105098433437825e-07
- -1.89553966613601e-07
velocity:
- 2.710505431213761e-20
- 9.923729589814134e-14
- -2.710505431213761e-20
- 9.456503505603231e-14
- 1.3552527156068805e-20
- 5.421010862427522e-20
effort:
- -0.017572433833421986
- -0.050442706423827276
- 0.0
- -0.0029042179728077495
- 0.0008924617822008594
- 8.845380723436043e-20
---
header:
  stamp:
    sec: 52
    nanosec: 168000000
  frame_id: base_link
name:
- elbow_joint
- shoulder_lift_joint
- shoulder_pan_joint
- wrist_1_joint
- wrist_2_joint
- wrist_3_joint
position:
- -6.487532437285611e-08
- -1.5699999571617198
- 1.0095518404877382e-07
- -1.5699997883740777
- -1.1050984334378252e-07
- -1.8955396661360095e-07
velocity:
- 0.0
- 9.92373094506685e-14
- 0.0
- 9.456508926614093e-14
- 0.0
- 8.131516293641283e-20
effort:
- -0.01757243383342198
- -0.05044270642382726
- -5.082197683525802e-18
- -0.0029042179728077486
- 0.0008924617822008593
- 1.0946128673636633e-19
---
header:
  stamp:
    sec: 52
    nanosec: 169000000
  frame_id: base_link
name:
- elbow_joint
- shoulder_lift_joint
- shoulder_pan_joint
- wrist_1_joint
- wrist_2_joint
- wrist_3_joint
position:
- -6.48753243728561e-08
- -1.5699999571617198
- 1.0095518404877382e-07
- -1.5699997883740777
- -1.1050984334378252e-07
- -1.8955396661360114e-07
velocity:
- 2.710505431213761e-20
- 9.923729589814134e-14
- -1.3552527156068805e-20
- 9.456508926614093e-14
- 2.710505431213761e-20
- -5.421010862427522e-20
effort:
- -0.01757243383342198
- -0.05044270642382727
- -3.3881317890172014e-18
- -0.002904217972807749
- 0.0008924617822008596
- 9.551069183520348e-20
---
header:
  stamp:
    sec: 52
    nanosec: 172000000
  frame_id: base_link
name:
- elbow_joint
- shoulder_lift_joint
- shoulder_pan_joint
- wrist_1_joint
- wrist_2_joint
- wrist_3_joint
position:
- -6.487532437285611e-08
- -1.5699999571617198
- 1.0095518404877384e-07
- -1.5699997883740777
- -1.1050984334378258e-07
- -1.8955396661360114e-07
velocity:
- -1.3552527156068805e-20
- 9.92373094506685e-14
- 0.0
- 9.456508926614093e-14
- -1.3552527156068805e-20
- -2.710505431213761e-20
effort:
- -0.01757243383342199
- -0.050442706423827276
- -1.6940658945086007e-18
- -0.002904217972807749
- 0.0008924617822008598
- 7.455491112148215e-20
---
header:
  stamp:
    sec: 52
    nanosec: 174000000
  frame_id: base_link
name:
- elbow_joint
- shoulder_lift_joint
- shoulder_pan_joint
- wrist_1_joint
- wrist_2_joint
- wrist_3_joint
position:
- -6.487532437285611e-08
- -1.5699999571617198
- 1.0095518404877386e-07
- -1.5699997883740777
- -1.1050984334378256e-07
- -1.8955396661360106e-07
velocity:
- 0.0
- 9.923731622693208e-14
- 0.0
- 9.456508926614093e-14
- 4.0657581468206416e-20
- -2.710505431213761e-20
effort:
- -0.017572433833421976
- -0.05044270642382726
- -6.776263578034403e-18
- -0.002904217972807747
- 0.0008924617822008591
- 6.759819292294043e-20
---
header:
  stamp:
    sec: 52
    nanosec: 176000000
  frame_id: base_link
name:
- elbow_joint
- shoulder_lift_joint
- shoulder_pan_joint
- wrist_1_joint
- wrist_2_joint
- wrist_3_joint
position:
- -6.487532437285608e-08
- -1.5699999571617198
- 1.0095518404877386e-07
- -1.5699997883740777
- -1.1050984334378244e-07
- -1.8955396661360103e-07
velocity:
- 1.3552527156068805e-20
- 9.923730267440492e-14
- -1.3552527156068805e-20
- 9.456508926614093e-14
- 9.486769009248164e-20
- -2.710505431213761e-20
effort:
- -0.017572433833421976
- -0.05044270642382726
- -6.776263578034403e-18
- -0.002904217972807747
- 0.0008924617822008591
- 8.156009693404056e-20
---
header:
  stamp:
    sec: 52
    nanosec: 176000000
  frame_id: base_link
name:
- elbow_joint
- shoulder_lift_joint
- shoulder_pan_joint
- wrist_1_joint
- wrist_2_joint
- wrist_3_joint
position:
- -6.487532437285608e-08
- -1.5699999571617198
- 1.0095518404877388e-07
- -1.5699997883740777
- -1.1050984334378246e-07
- -1.8955396661360103e-07
velocity:
- 0.0
- 9.923730267440492e-14
- 1.3552527156068805e-20
- 9.456508926614093e-14
- -2.710505431213761e-20
- 2.710505431213761e-20
effort:
- -0.017572433833421993
- -0.05044270642382728
- 1.6940658945086007e-18
- -0.00290421797280775
- 0.0008924617822008596
- 8.847965662850275e-20
---
header:
  stamp:
    sec: 52
    nanosec: 186000000
  frame_id: base_link
name:
- elbow_joint
- shoulder_lift_joint
- shoulder_pan_joint
- wrist_1_joint
- wrist_2_joint
- wrist_3_joint
position:
- -6.487532437285602e-08
- -1.5699999571617198
- 1.0095518404877381e-07
- -1.5699997883740777
- -1.1050984334378243e-07
- -1.8955396661360103e-07
velocity:
- 2.710505431213761e-20
- 9.923729589814134e-14
- -1.3552527156068805e-20
- 9.456503505603231e-14
- 1.3552527156068805e-20
- 5.421010862427522e-20
effort:
- -0.017572433833421986
- -0.05044270642382726
- -1.6940658945086007e-18
- -0.0029042179728077477
- 0.0008924617822008594
- 1.164422387419164e-19
---
header:
  stamp:
    sec: 52
    nanosec: 186000000
  frame_id: base_link
name:
- elbow_joint
- shoulder_lift_joint
- shoulder_pan_joint
- wrist_1_joint
- wrist_2_joint
- wrist_3_joint
position:
- -6.487532437285603e-08
- -1.5699999571617198
- 1.0095518404877381e-07
- -1.5699997883740777
- -1.1050984334378243e-07
- -1.8955396661360106e-07
velocity:
- 1.3552527156068805e-20
- 9.923729589814134e-14
- -1.3552527156068805e-20
- 9.456508926614093e-14
- 2.710505431213761e-20
- -2.710505431213761e-20
effort:
- -0.01757243383342198
- -0.05044270642382727
- -3.3881317890172014e-18
- -0.002904217972807749
- 0.0008924617822008596
- 6.758526822586934e-20
---
header:
  stamp:
    sec: 52
    nanosec: 186000000
  frame_id: base_link
name:
- elbow_joint
- shoulder_lift_joint
- shoulder_pan_joint
- wrist_1_joint
- wrist_2_joint
- wrist_3_joint
position:
- -6.487532437285607e-08
- -1.5699999571617198
- 1.0095518404877382e-07
- -1.5699997883740777
- -1.1050984334378248e-07
- -1.8955396661360106e-07
velocity:
- -2.710505431213761e-20
- 9.92373094506685e-14
- 0.0
- 9.456508926614093e-14
- -1.3552527156068805e-20
- -2.710505431213761e-20
effort:
- -0.01757243383342199
- -0.050442706423827276
- -1.6940658945086007e-18
- -0.002904217972807749
- 0.0008924617822008598
- 7.455491112148215e-20
---
header:
  stamp:
    sec: 52
    nanosec: 192000000
  frame_id: base_link
name:
- elbow_joint
- shoulder_lift_joint
- shoulder_pan_joint
- wrist_1_joint
- wrist_2_joint
- wrist_3_joint
position:
- -6.48753243728561e-08
- -1.5699999571617198
- 1.0095518404877385e-07
- -1.5699997883740777
- -1.1050984334378247e-07
- -1.8955396661360098e-07
velocity:
- -1.3552527156068805e-20
- 9.923731622693208e-14
- 0.0
- 9.456508926614093e-14
- 4.0657581468206416e-20
- -2.710505431213761e-20
effort:
- -0.017572433833421976
- -0.05044270642382726
- -6.776263578034403e-18
- -0.002904217972807747
- 0.0008924617822008591
- 6.759819292294043e-20
---
header:
  stamp:
    sec: 52
    nanosec: 194000000
  frame_id: base_link
name:
- elbow_joint
- shoulder_lift_joint
- shoulder_pan_joint
- wrist_1_joint
- wrist_2_joint
- wrist_3_joint
position:
- -6.487532437285608e-08
- -1.5699999571617198
- 1.0095518404877385e-07
- -1.5699997883740777
- -1.1050984334378248e-07
- -1.8955396661360095e-07
velocity:
- 1.3552527156068805e-20
- 9.923730267440492e-14
- -1.3552527156068805e-20
- 9.4565007950978e-14
- -1.3552527156068805e-20
- 5.421010862427522e-20
effort:
- -0.017572433833421983
- -0.05044270642382726
- -3.3881317890172014e-18
- -0.00290421797280775
- 0.0008924617822008596
- 6.752387591478142e-20
---
header:
  stamp:
    sec: 52
    nanosec: 195000000
  frame_id: base_link
name:
- elbow_joint
- shoulder_lift_joint
- shoulder_pan_joint
- wrist_1_joint
- wrist_2_joint
- wrist_3_joint
position:
- -6.487532437285608e-08
- -1.5699999571617198
- 1.0095518404877388e-07
- -1.5699997883740777
- -1.1050984334378247e-07
- -1.8955396661360098e-07
velocity:
- 2.710505431213761e-20
- 9.923730267440492e-14
- 0.0
- 9.456503505603231e-14
- 4.0657581468206416e-20
- -2.710505431213761e-20
effort:
- -0.01757243383342197
- -0.05044270642382725
- -6.776263578034403e-18
- -0.0029042179728077473
- 0.0008924617822008591
- 7.457914492849049e-20
---
header:
  stamp:
    sec: 52
    nanosec: 198000000
  frame_id: base_link
name:
- elbow_joint
- shoulder_lift_joint
- shoulder_pan_joint
- wrist_1_joint
- wrist_2_joint
- wrist_3_joint
position:
- -6.48753243728561e-08
- -1.5699999571617198
- 1.0095518404877389e-07
- -1.5699997883740777
- -1.1050984334378246e-07
- -1.8955396661360106e-07
velocity:
- -2.710505431213761e-20
- 9.92373094506685e-14
- 2.710505431213761e-20
- 9.456514347624956e-14
- -1.3552527156068805e-20
- -5.421010862427522e-20
effort:
- -0.017572433833421996
- -0.050442706423827276
- 0.0
- -0.002904217972807749
- 0.0008924617822008597
- 9.54864580281951e-20
---
header:
  stamp:
    sec: 52
    nanosec: 200000000
  frame_id: base_link
name:
- elbow_joint
- shoulder_lift_joint
- shoulder_pan_joint
- wrist_1_joint
- wrist_2_joint
- wrist_3_joint
position:
- -6.487532437285602e-08
- -1.5699999571617198
- 1.0095518404877385e-07
- -1.5699997883740777
- -1.1050984334378244e-07
- -1.8955396661360095e-07
velocity:
- 2.710505431213761e-20
- 9.923729589814134e-14
- -1.3552527156068805e-20
- 9.456506216108662e-14
- 0.0
- 2.710505431213761e-20
effort:
- -0.017572433833422003
- -0.0504427064238273
- 5.082197683525802e-18
- -0.0029042179728077495
- 0.0008924617822008598
- 8.850389043551116e-20
---
header:
  stamp:
    sec: 52
    nanosec: 202000000
  frame_id: base_link
name:
- elbow_joint
- shoulder_lift_joint
- shoulder_pan_joint
- wrist_1_joint
- wrist_2_joint
- wrist_3_joint
position:
- -6.487532437285603e-08
- -1.5699999571617198
- 1.0095518404877386e-07
- -1.5699997883740777
- -1.1050984334378244e-07
- -1.8955396661360103e-07
velocity:
- 0.0
- 9.923730267440492e-14
- 0.0
- 9.456508926614093e-14
- -1.3552527156068805e-20
- -2.710505431213761e-20
effort:
- -0.017572433833421986
- -0.05044270642382729
- -1.6940658945086007e-18
- -0.0029042179728077495
- 0.0008924617822008595
- 8.148577992588153e-20
---
header:
  stamp:
    sec: 52
    nanosec: 204000000
  frame_id: base_link
name:
- elbow_joint
- shoulder_lift_joint
- shoulder_pan_joint
- wrist_1_joint
- wrist_2_joint
- wrist_3_joint
position:
- -6.487532437285607e-08
- -1.5699999571617198
- 1.0095518404877386e-07
- -1.5699997883740777
- -1.1050984334378248e-07
- -1.8955396661360103e-07
velocity:
- 0.0
- 9.923730267440492e-14
- -1.3552527156068805e-20
- 9.456508926614093e-14
- -1.3552527156068805e-20
- -2.710505431213761e-20
effort:
- -0.017572433833421972
- -0.050442706423827255
- -3.3881317890172014e-18
- -0.0029042179728077477
- 0.0008924617822008592
- 7.452906172733982e-20
---
header:
  stamp:
    sec: 52
    nanosec: 206000000
  frame_id: base_link
name:
- elbow_joint
- shoulder_lift_joint
- shoulder_pan_joint
- wrist_1_joint
- wrist_2_joint
- wrist_3_joint
position:
- -6.487532437285606e-08
- -1.5699999571617198
- 1.0095518404877384e-07
- -1.5699997883740777
- -1.105098433437825e-07
- -1.8955396661360103e-07
velocity:
- -1.3552527156068805e-20
- 9.923730267440492e-14
- 0.0
- 9.456511637119525e-14
- -2.710505431213761e-20
- -2.710505431213761e-20
effort:
- -0.017572433833421996
- -0.050442706423827276
- -1.6940658945086007e-18
- -0.002904217972807749
- 0.0008924617822008596
- 8.849096573843999e-20
---
header:
  stamp:
    sec: 52
    nanosec: 208000000
  frame_id: base_link
name:
- elbow_joint
- shoulder_lift_joint
- shoulder_pan_joint
- wrist_1_joint
- wrist_2_joint
- wrist_3_joint
position:
- -6.487532437285611e-08
- -1.5699999571617198
- 1.0095518404877385e-07
- -1.5699997883740777
- -1.1050984334378246e-07
- -1.8955396661360103e-07
velocity:
- -1.3552527156068805e-20
- 9.92373094506685e-14
- 0.0
- 9.456506216108662e-14
- 0.0
- 5.421010862427522e-20
effort:
- -0.01757243383342198
- -0.050442706423827276
- -1.6940658945086007e-18
- -0.0029042179728077486
- 0.0008924617822008594
- 8.845380723436043e-20
---
header:
  stamp:
    sec: 52
    nanosec: 210000000
  frame_id: base_link
name:
- elbow_joint
- shoulder_lift_joint
- shoulder_pan_joint
- wrist_1_joint
- wrist_2_joint
- wrist_3_joint
position:
- -6.487532437285612e-08
- -1.5699999571617198
- 1.0095518404877386e-07
- -1.5699997883740777
- -1.105098433437825e-07
- -1.8955396661360106e-07
velocity:
- -1.3552527156068805e-20
- 9.92373094506685e-14
- 0.0
- 9.456511637119525e-14
- -2.710505431213761e-20
- -2.710505431213761e-20
effort:
- -0.01757243383342199
- -0.050442706423827276
- -1.6940658945086007e-18
- -0.002904217972807749
- 0.0008924617822008595
- 8.149870462295267e-20
---
header:
  stamp:
    sec: 52
    nanosec: 212000000
  frame_id: base_link
name:
- elbow_joint
- shoulder_lift_joint
- shoulder_pan_joint
- wrist_1_joint
- wrist_2_joint
- wrist_3_joint
position:
- -6.487532437285614e-08
- -1.5699999571617198
- 1.0095518404877388e-07
- -1.5699997883740777
- -1.1050984334378254e-07
- -1.8955396661360106e-07
velocity:
- -1.3552527156068805e-20
- 9.92373094506685e-14
- 0.0
- 9.456508926614093e-14
- -2.710505431213761e-20
- -2.710505431213761e-20
effort:
- -0.01757243383342199
- -0.050442706423827276
- -1.6940658945086007e-18
- -0.002904217972807749
- 0.0008924617822008595
- 7.451775261740261e-20
---
header:
  stamp:
    sec: 52
    nanosec: 212000000
  frame_id: base_link
name:
- elbow_joint
- shoulder_lift_joint
- shoulder_pan_joint
- wrist_1_joint
- wrist_2_joint
- wrist_3_joint
position:
- -6.487532437285614e-08
- -1.5699999571617198
- 1.009551840487739e-07
- -1.5699997883740777
- -1.105098433437825e-07
- -1.8955396661360103e-07
velocity:
- 0.0
- 9.923731622693208e-14
- 0.0
- 9.456508926614093e-14
- 5.421010862427522e-20
- -2.710505431213761e-20
effort:
- -0.017572433833421976
- -0.05044270642382726
- -6.776263578034403e-18
- -0.002904217972807747
- 0.0008924617822008591
- 8.156009693404056e-20
---
header:
  stamp:
    sec: 52
    nanosec: 214000000
  frame_id: base_link
name:
- elbow_joint
- shoulder_lift_joint
- shoulder_pan_joint
- wrist_1_joint
- wrist_2_joint
- wrist_3_joint
position:
- -6.487532437285611e-08
- -1.5699999571617198
- 1.0095518404877386e-07
- -1.5699997883740777
- -1.1050984334378248e-07
- -1.8955396661360095e-07
velocity:
- 1.3552527156068805e-20
- 9.923730267440492e-14
- -1.3552527156068805e-20
- 9.456508926614093e-14
- -1.3552527156068805e-20
- 2.710505431213761e-20
effort:
- -0.017572433833421993
- -0.05044270642382728
- 3.3881317890172014e-18
- -0.00290421797280775
- 0.0008924617822008596
- 6.753680061185256e-20
---
header:
  stamp:
    sec: 52
    nanosec: 217000000
  frame_id: base_link
name:
- elbow_joint
- shoulder_lift_joint
- shoulder_pan_joint
- wrist_1_joint
- wrist_2_joint
- wrist_3_joint
position:
- -6.487532437285607e-08
- -1.5699999571617198
- 1.0095518404877384e-07
- -1.5699997883740777
- -1.105098433437825e-07
- -1.89553966613601e-07
velocity:
- 0.0
- 9.923730267440492e-14
- 0.0
- 9.456511637119525e-14
- -2.710505431213761e-20
- -5.421010862427522e-20
effort:
- -0.017572433833421996
- -0.050442706423827276
- -1.6940658945086007e-18
- -0.002904217972807749
- 0.0008924617822008596
- 8.849096573843999e-20
---
header:
  stamp:
    sec: 52
    nanosec: 220000000
  frame_id: base_link
name:
- elbow_joint
- shoulder_lift_joint
- shoulder_pan_joint
- wrist_1_joint
- wrist_2_joint
- wrist_3_joint
position:
- -6.487532437285606e-08
- -1.5699999571617198
- 1.0095518404877381e-07
- -1.5699997883740777
- -1.1050984334378248e-07
- -1.8955396661360098e-07
velocity:
- -1.3552527156068805e-20
- 9.923730267440492e-14
- 0.0
- 9.456511637119525e-14
- -1.3552527156068805e-20
- -2.710505431213761e-20
effort:
- -0.017572433833421996
- -0.050442706423827276
- -1.6940658945086007e-18
- -0.002904217972807749
- 0.0008924617822008596
- 8.151001373288992e-20
---
header:
  stamp:
    sec: 52
    nanosec: 222000000
  frame_id: base_link
name:
- elbow_joint
- shoulder_lift_joint
- shoulder_pan_joint
- wrist_1_joint
- wrist_2_joint
- wrist_3_joint
position:
- -6.48753243728561e-08
- -1.5699999571617198
- 1.0095518404877382e-07
- -1.5699997883740777
- -1.1050984334378246e-07
- -1.8955396661360106e-07
velocity:
- 0.0
- 9.923730267440492e-14
- 0.0
- 9.456511637119525e-14
- 2.710505431213761e-20
- -2.710505431213761e-20
effort:
- -0.01757243383342198
- -0.05044270642382726
- -1.6940658945086007e-18
- -0.0029042179728077477
- 0.0008924617822008594
- 9.54993827252662e-20
---
header:
  stamp:
    sec: 52
    nanosec: 224000000
  frame_id: base_link
name:
- elbow_joint
- shoulder_lift_joint
- shoulder_pan_joint
- wrist_1_joint
- wrist_2_joint
- wrist_3_joint
position:
- -6.487532437285608e-08
- -1.5699999571617198
- 1.0095518404877382e-07
- -1.5699997883740777
- -1.1050984334378246e-07
- -1.89553966613601e-07
velocity:
- 4.0657581468206416e-20
- 9.923730267440492e-14
- -2.710505431213761e-20
- 9.456498084592369e-14
- 1.3552527156068805e-20
- 8.131516293641283e-20
effort:
- -0.017572433833421955
- -0.05044270642382723
- -8.470329472543003e-18
- -0.002904217972807747
- 0.0008924617822008589
- 8.847965662850268e-20
---
header:
  stamp:
    sec: 52
    nanosec: 226000000
  frame_id: base_link
name:
- elbow_joint
- shoulder_lift_joint
- shoulder_pan_joint
- wrist_1_joint
- wrist_2_joint
- wrist_3_joint
position:
- -6.48753243728561e-08
- -1.5699999571617198
- 1.0095518404877384e-07
- -1.5699997883740777
- -1.1050984334378244e-07
- -1.8955396661360092e-07
velocity:
- -1.3552527156068805e-20
- 9.92373094506685e-14
- 1.3552527156068805e-20
- 9.456511637119525e-14
- -1.3552527156068805e-20
- 0.0
effort:
- -0.017572433833421996
- -0.050442706423827297
- 5.082197683525802e-18
- -0.0029042179728077495
- 0.0008924617822008597
- 7.451775261740262e-20
---
header:
  stamp:
    sec: 52
    nanosec: 228000000
  frame_id: base_link
name:
- elbow_joint
- shoulder_lift_joint
- shoulder_pan_joint
- wrist_1_joint
- wrist_2_joint
- wrist_3_joint
position:
- -6.487532437285607e-08
- -1.5699999571617198
- 1.0095518404877381e-07
- -1.5699997883740777
- -1.1050984334378243e-07
- -1.8955396661360092e-07
velocity:
- 2.710505431213761e-20
- 9.923729589814134e-14
- -2.710505431213761e-20
- 9.456503505603231e-14
- 0.0
- -5.421010862427522e-20
effort:
- -0.017572433833421986
- -0.050442706423827276
- 0.0
- -0.0029042179728077495
- 0.0008924617822008595
- 4.658101989813122e-20
---
header:
  stamp:
    sec: 52
    nanosec: 229000000
  frame_id: base_link
name:
- elbow_joint
- shoulder_lift_joint
- shoulder_pan_joint
- wrist_1_joint
- wrist_2_joint
- wrist_3_joint
position:
- -6.48753243728561e-08
- -1.5699999571617198
- 1.0095518404877382e-07
- -1.5699997883740777
- -1.1050984334378244e-07
- -1.8955396661360098e-07
velocity:
- -1.3552527156068805e-20
- 9.92373094506685e-14
- 1.3552527156068805e-20
- 9.456508926614093e-14
- -2.710505431213761e-20
- 0.0
effort:
- -0.017572433833421993
- -0.05044270642382728
- 3.3881317890172014e-18
- -0.00290421797280775
- 0.0008924617822008596
- 8.847965662850275e-20
---
header:
  stamp:
    sec: 52
    nanosec: 232000000
  frame_id: base_link
name:
- elbow_joint
- shoulder_lift_joint
- shoulder_pan_joint
- wrist_1_joint
- wrist_2_joint
- wrist_3_joint
position:
- -6.487532437285608e-08
- -1.5699999571617198
- 1.0095518404877384e-07
- -1.5699997883740777
- -1.1050984334378246e-07
- -1.89553966613601e-07
velocity:
- 0.0
- 9.923730267440492e-14
- 1.3552527156068805e-20
- 9.456514347624956e-14
- 0.0
- -5.421010862427522e-20
effort:
- -0.017572433833421993
- -0.05044270642382728
- 1.6940658945086007e-18
- -0.002904217972807749
- 0.0008924617822008598
- 8.154717223696949e-20
---
header:
  stamp:
    sec: 52
    nanosec: 234000000
  frame_id: base_link
name:
- elbow_joint
- shoulder_lift_joint
- shoulder_pan_joint
- wrist_1_joint
- wrist_2_joint
- wrist_3_joint
position:
- -6.487532437285612e-08
- -1.5699999571617198
- 1.0095518404877385e-07
- -1.5699997883740777
- -1.1050984334378254e-07
- -1.8955396661360103e-07
velocity:
- -2.710505431213761e-20
- 9.92373094506685e-14
- 1.3552527156068805e-20
- 9.456517058130387e-14
- -5.421010862427522e-20
- -8.131516293641283e-20
effort:
- -0.017572433833421993
- -0.05044270642382728
- 1.6940658945086007e-18
- -0.002904217972807749
- 0.0008924617822008596
- 6.75481097217898e-20
---
header:
  stamp:
    sec: 52
    nanosec: 236000000
  frame_id: base_link
name:
- elbow_joint
- shoulder_lift_joint
- shoulder_pan_joint
- wrist_1_joint
- wrist_2_joint
- wrist_3_joint
position:
- -6.48753243728561e-08
- -1.5699999571617198
- 1.0095518404877382e-07
- -1.5699997883740777
- -1.1050984334378248e-07
- -1.8955396661360098e-07
velocity:
- 2.710505431213761e-20
- 9.923729589814134e-14
- -2.710505431213761e-20
- 9.456503505603231e-14
- 1.3552527156068805e-20
- 5.421010862427522e-20
effort:
- -0.017572433833421986
- -0.050442706423827276
- 0.0
- -0.0029042179728077495
- 0.0008924617822008594
- 8.845380723436043e-20
---
header:
  stamp:
    sec: 52
    nanosec: 238000000
  frame_id: base_link
name:
- elbow_joint
- shoulder_lift_joint
- shoulder_pan_joint
- wrist_1_joint
- wrist_2_joint
- wrist_3_joint
position:
- -6.487532437285611e-08
- -1.5699999571617198
- 1.0095518404877384e-07
- -1.5699997883740777
- -1.1050984334378251e-07
- -1.8955396661360098e-07
velocity:
- 0.0
- 9.92373094506685e-14
- 0.0
- 9.456508926614093e-14
- 0.0
- 5.421010862427522e-20
effort:
- -0.01757243383342198
- -0.05044270642382726
- -5.082197683525802e-18
- -0.0029042179728077486
- 0.0008924617822008593
- 1.0946128673636633e-19
---
header:
  stamp:
    sec: 52
    nanosec: 239000000
  frame_id: base_link
name:
- elbow_joint
- shoulder_lift_joint
- shoulder_pan_joint
- wrist_1_joint
- wrist_2_joint
- wrist_3_joint
position:
- -6.48753243728561e-08
- -1.5699999571617198
- 1.0095518404877384e-07
- -1.5699997883740777
- -1.1050984334378251e-07
- -1.8955396661360116e-07
velocity:
- 2.710505431213761e-20
- 9.923729589814134e-14
- -1.3552527156068805e-20
- 9.456508926614093e-14
- 2.710505431213761e-20
- -5.421010862427522e-20
effort:
- -0.01757243383342198
- -0.05044270642382727
- -3.3881317890172014e-18
- -0.002904217972807749
- 0.0008924617822008596
- 9.551069183520348e-20
---
header:
  stamp:
    sec: 52
    nanosec: 241000000
  frame_id: base_link
name:
- elbow_joint
- shoulder_lift_joint
- shoulder_pan_joint
- wrist_1_joint
- wrist_2_joint
- wrist_3_joint
position:
- -6.487532437285611e-08
- -1.5699999571617198
- 1.0095518404877385e-07
- -1.5699997883740777
- -1.1050984334378256e-07
- -1.8955396661360116e-07
velocity:
- -1.3552527156068805e-20
- 9.92373094506685e-14
- 0.0
- 9.456508926614093e-14
- -1.3552527156068805e-20
- -2.710505431213761e-20
effort:
- -0.01757243383342199
- -0.050442706423827276
- -1.6940658945086007e-18
- -0.002904217972807749
- 0.0008924617822008598
- 7.455491112148215e-20
---
header:
  stamp:
    sec: 52
    nanosec: 243000000
  frame_id: base_link
name:
- elbow_joint
- shoulder_lift_joint
- shoulder_pan_joint
- wrist_1_joint
- wrist_2_joint
- wrist_3_joint
position:
- -6.487532437285611e-08
- -1.5699999571617198
- 1.0095518404877388e-07
- -1.5699997883740777
- -1.1050984334378255e-07
- -1.8955396661360108e-07
velocity:
- 0.0
- 9.923731622693208e-14
- 0.0
- 9.456508926614093e-14
- 4.0657581468206416e-20
- -2.710505431213761e-20
effort:
- -0.017572433833421976
- -0.05044270642382726
- -6.776263578034403e-18
- -0.002904217972807747
- 0.0008924617822008591
- 6.759819292294043e-20
---
header:
  stamp:
    sec: 52
    nanosec: 245000000
  frame_id: base_link
name:
- elbow_joint
- shoulder_lift_joint
- shoulder_pan_joint
- wrist_1_joint
- wrist_2_joint
- wrist_3_joint
position:
- -6.487532437285608e-08
- -1.5699999571617198
- 1.0095518404877388e-07
- -1.5699997883740777
- -1.1050984334378243e-07
- -1.8955396661360106e-07
velocity:
- 1.3552527156068805e-20
- 9.923730267440492e-14
- -1.3552527156068805e-20
- 9.456508926614093e-14
- 9.486769009248164e-20
- -2.710505431213761e-20
effort:
- -0.017572433833421976
- -0.05044270642382726
- -6.776263578034403e-18
- -0.002904217972807747
- 0.0008924617822008591
- 8.156009693404056e-20
---
header:
  stamp:
    sec: 52
    nanosec: 246000000
  frame_id: base_link
name:
- elbow_joint
- shoulder_lift_joint
- shoulder_pan_joint
- wrist_1_joint
- wrist_2_joint
- wrist_3_joint
position:
- -6.487532437285608e-08
- -1.5699999571617198
- 1.0095518404877389e-07
- -1.5699997883740777
- -1.1050984334378244e-07
- -1.8955396661360106e-07
velocity:
- 0.0
- 9.923730267440492e-14
- 1.3552527156068805e-20
- 9.456508926614093e-14
- -2.710505431213761e-20
- 2.710505431213761e-20
effort:
- -0.017572433833421993
- -0.05044270642382728
- 1.6940658945086007e-18
- -0.00290421797280775
- 0.0008924617822008596
- 8.847965662850275e-20
---
header:
  stamp:
    sec: 52
    nanosec: 246000000
  frame_id: base_link
name:
- elbow_joint
- shoulder_lift_joint
- shoulder_pan_joint
- wrist_1_joint
- wrist_2_joint
- wrist_3_joint
position:
- -6.487532437285611e-08
- -1.5699999571617198
- 1.0095518404877389e-07
- -1.5699997883740777
- -1.1050984334378242e-07
- -1.8955396661360108e-07
velocity:
- 1.3552527156068805e-20
- 9.923730267440492e-14
- -2.710505431213761e-20
- 9.456506216108662e-14
- 4.0657581468206416e-20
- 5.421010862427522e-20
effort:
- -0.017572433833421965
- -0.050442706423827234
- -8.470329472543003e-18
- -0.0029042179728077477
- 0.0008924617822008591
- 1.0246741003374511e-19
---
header:
  stamp:
    sec: 52
    nanosec: 251000000
  frame_id: base_link
name:
- elbow_joint
- shoulder_lift_joint
- shoulder_pan_joint
- wrist_1_joint
- wrist_2_joint
- wrist_3_joint
position:
- -6.487532437285606e-08
- -1.5699999571617198
- 1.0095518404877386e-07
- -1.5699997883740777
- -1.1050984334378242e-07
- -1.895539666136011e-07
velocity:
- 4.0657581468206416e-20
- 9.923728912187776e-14
- -2.710505431213761e-20
- 9.4565007950978e-14
- 2.710505431213761e-20
- 5.421010862427522e-20
effort:
- -0.017572433833421993
- -0.05044270642382728
- 0.0
- -0.00290421797280775
- 0.00089246178220086
- 1.0249164384075358e-19
---
header:
  stamp:
    sec: 52
    nanosec: 253000000
  frame_id: base_link
name:
- elbow_joint
- shoulder_lift_joint
- shoulder_pan_joint
- wrist_1_joint
- wrist_2_joint
- wrist_3_joint
position:
- -6.48753243728561e-08
- -1.5699999571617198
- 1.0095518404877388e-07
- -1.5699997883740777
- -1.1050984334378246e-07
- -1.895539666136011e-07
velocity:
- -4.0657581468206416e-20
- 9.923731622693208e-14
- 1.3552527156068805e-20
- 9.456511637119525e-14
- -2.710505431213761e-20
- 2.710505431213761e-20
effort:
- -0.017572433833421996
- -0.050442706423827276
- 1.6940658945086007e-18
- -0.0029042179728077495
- 0.0008924617822008598
- 1.0246741003374518e-19
---
header:
  stamp:
    sec: 52
    nanosec: 256000000
  frame_id: base_link
name:
- elbow_joint
- shoulder_lift_joint
- shoulder_pan_joint
- wrist_1_joint
- wrist_2_joint
- wrist_3_joint
position:
- -6.487532437285602e-08
- -1.5699999571617198
- 1.0095518404877382e-07
- -1.5699997883740777
- -1.1050984334378242e-07
- -1.8955396661360106e-07
velocity:
- 2.710505431213761e-20
- 9.923729589814134e-14
- -1.3552527156068805e-20
- 9.456503505603231e-14
- 1.3552527156068805e-20
- 5.421010862427522e-20
effort:
- -0.017572433833421986
- -0.05044270642382726
- -1.6940658945086007e-18
- -0.0029042179728077477
- 0.0008924617822008594
- 1.164422387419164e-19
---
header:
  stamp:
    sec: 52
    nanosec: 258000000
  frame_id: base_link
name:
- elbow_joint
- shoulder_lift_joint
- shoulder_pan_joint
- wrist_1_joint
- wrist_2_joint
- wrist_3_joint
position:
- -6.487532437285603e-08
- -1.5699999571617198
- 1.0095518404877382e-07
- -1.5699997883740777
- -1.1050984334378242e-07
- -1.8955396661360108e-07
velocity:
- 1.3552527156068805e-20
- 9.923729589814134e-14
- -1.3552527156068805e-20
- 9.456508926614093e-14
- 2.710505431213761e-20
- -2.710505431213761e-20
effort:
- -0.01757243383342198
- -0.05044270642382727
- -3.3881317890172014e-18
- -0.002904217972807749
- 0.0008924617822008596
- 6.758526822586934e-20
---
header:
  stamp:
    sec: 52
    nanosec: 259000000
  frame_id: base_link
name:
- elbow_joint
- shoulder_lift_joint
- shoulder_pan_joint
- wrist_1_joint
- wrist_2_joint
- wrist_3_joint
position:
- -6.487532437285607e-08
- -1.5699999571617198
- 1.0095518404877384e-07
- -1.5699997883740777
- -1.1050984334378247e-07
- -1.8955396661360108e-07
velocity:
- -2.710505431213761e-20
- 9.92373094506685e-14
- 0.0
- 9.456508926614093e-14
- -1.3552527156068805e-20
- -2.710505431213761e-20
effort:
- -0.01757243383342199
- -0.050442706423827276
- -1.6940658945086007e-18
- -0.002904217972807749
- 0.0008924617822008598
- 7.455491112148215e-20
---
header:
  stamp:
    sec: 52
    nanosec: 262000000
  frame_id: base_link
name:
- elbow_joint
- shoulder_lift_joint
- shoulder_pan_joint
- wrist_1_joint
- wrist_2_joint
- wrist_3_joint
position:
- -6.48753243728561e-08
- -1.5699999571617198
- 1.0095518404877386e-07
- -1.5699997883740777
- -1.1050984334378246e-07
- -1.89553966613601e-07
velocity:
- -1.3552527156068805e-20
- 9.923731622693208e-14
- 0.0
- 9.456508926614093e-14
- 4.0657581468206416e-20
- -2.710505431213761e-20
effort:
- -0.017572433833421976
- -0.05044270642382726
- -6.776263578034403e-18
- -0.002904217972807747
- 0.0008924617822008591
- 6.759819292294043e-20
---
header:
  stamp:
    sec: 52
    nanosec: 264000000
  frame_id: base_link
name:
- elbow_joint
- shoulder_lift_joint
- shoulder_pan_joint
- wrist_1_joint
- wrist_2_joint
- wrist_3_joint
position:
- -6.487532437285608e-08
- -1.5699999571617198
- 1.0095518404877386e-07
- -1.5699997883740777
- -1.1050984334378247e-07
- -1.8955396661360092e-07
velocity:
- 1.3552527156068805e-20
- 9.923730267440492e-14
- -1.3552527156068805e-20
- 9.4565007950978e-14
- -1.3552527156068805e-20
- 8.131516293641283e-20
effort:
- -0.017572433833421983
- -0.05044270642382726
- -3.3881317890172014e-18
- -0.00290421797280775
- 0.0008924617822008596
- 6.752387591478142e-20
---
header:
  stamp:
    sec: 52
    nanosec: 266000000
  frame_id: base_link
name:
- elbow_joint
- shoulder_lift_joint
- shoulder_pan_joint
- wrist_1_joint
- wrist_2_joint
- wrist_3_joint
position:
- -6.487532437285608e-08
- -1.5699999571617198
- 1.0095518404877389e-07
- -1.5699997883740777
- -1.1050984334378246e-07
- -1.8955396661360095e-07
velocity:
- 2.710505431213761e-20
- 9.923730267440492e-14
- 0.0
- 9.456503505603231e-14
- 4.0657581468206416e-20
- -2.710505431213761e-20
effort:
- -0.01757243383342197
- -0.05044270642382725
- -6.776263578034403e-18
- -0.0029042179728077473
- 0.0008924617822008591
- 7.457914492849049e-20
---
header:
  stamp:
    sec: 52
    nanosec: 267000000
  frame_id: base_link
name:
- elbow_joint
- shoulder_lift_joint
- shoulder_pan_joint
- wrist_1_joint
- wrist_2_joint
- wrist_3_joint
position:
- -6.48753243728561e-08
- -1.5699999571617198
- 1.009551840487739e-07
- -1.5699997883740777
- -1.1050984334378244e-07
- -1.8955396661360103e-07
velocity:
- -2.710505431213761e-20
- 9.92373094506685e-14
- 2.710505431213761e-20
- 9.456514347624956e-14
- -1.3552527156068805e-20
- -5.421010862427522e-20
effort:
- -0.017572433833421996
- -0.050442706423827276
- 0.0
- -0.002904217972807749
- 0.0008924617822008597
- 9.54864580281951e-20
---
header:
  stamp:
    sec: 52
    nanosec: 267000000
  frame_id: base_link
name:
- elbow_joint
- shoulder_lift_joint
- shoulder_pan_joint
- wrist_1_joint
- wrist_2_joint
- wrist_3_joint
position:
- -6.487532437285602e-08
- -1.5699999571617198
- 1.0095518404877386e-07
- -1.5699997883740777
- -1.1050984334378243e-07
- -1.8955396661360092e-07
velocity:
- 2.710505431213761e-20
- 9.923729589814134e-14
- -1.3552527156068805e-20
- 9.456506216108662e-14
- 0.0
- 2.710505431213761e-20
effort:
- -0.017572433833422003
- -0.0504427064238273
- 5.082197683525802e-18
- -0.0029042179728077495
- 0.0008924617822008598
- 8.850389043551116e-20
---
header:
  stamp:
    sec: 52
    nanosec: 274000000
  frame_id: base_link
name:
- elbow_joint
- shoulder_lift_joint
- shoulder_pan_joint
- wrist_1_joint
- wrist_2_joint
- wrist_3_joint
position:
- -6.487532437285607e-08
- -1.5699999571617198
- 1.0095518404877388e-07
- -1.5699997883740777
- -1.1050984334378247e-07
- -1.89553966613601e-07
velocity:
- 0.0
- 9.923730267440492e-14
- -1.3552527156068805e-20
- 9.456508926614093e-14
- -1.3552527156068805e-20
- -2.710505431213761e-20
effort:
- -0.017572433833421972
- -0.050442706423827255
- -3.3881317890172014e-18
- -0.0029042179728077477
- 0.0008924617822008592
- 7.452906172733982e-20
---
header:
  stamp:
    sec: 52
    nanosec: 275000000
  frame_id: base_link
name:
- elbow_joint
- shoulder_lift_joint
- shoulder_pan_joint
- wrist_1_joint
- wrist_2_joint
- wrist_3_joint
position:
- -6.487532437285606e-08
- -1.5699999571617198
- 1.0095518404877385e-07
- -1.5699997883740777
- -1.1050984334378248e-07
- -1.89553966613601e-07
velocity:
- -1.3552527156068805e-20
- 9.923730267440492e-14
- 0.0
- 9.456511637119525e-14
- -2.710505431213761e-20
- -2.710505431213761e-20
effort:
- -0.017572433833421996
- -0.050442706423827276
- -1.6940658945086007e-18
- -0.002904217972807749
- 0.0008924617822008596
- 8.849096573843999e-20
---
header:
  stamp:
    sec: 52
    nanosec: 278000000
  frame_id: base_link
name:
- elbow_joint
- shoulder_lift_joint
- shoulder_pan_joint
- wrist_1_joint
- wrist_2_joint
- wrist_3_joint
position:
- -6.487532437285611e-08
- -1.5699999571617198
- 1.0095518404877386e-07
- -1.5699997883740777
- -1.1050984334378244e-07
- -1.89553966613601e-07
velocity:
- -1.3552527156068805e-20
- 9.92373094506685e-14
- 0.0
- 9.456506216108662e-14
- 0.0
- 5.421010862427522e-20
effort:
- -0.01757243383342198
- -0.050442706423827276
- -1.6940658945086007e-18
- -0.0029042179728077486
- 0.0008924617822008594
- 8.845380723436043e-20
---
header:
  stamp:
    sec: 52
    nanosec: 278000000
  frame_id: base_link
name:
- elbow_joint
- shoulder_lift_joint
- shoulder_pan_joint
- wrist_1_joint
- wrist_2_joint
- wrist_3_joint
position:
- -6.487532437285612e-08
- -1.5699999571617198
- 1.0095518404877388e-07
- -1.5699997883740777
- -1.1050984334378248e-07
- -1.8955396661360103e-07
velocity:
- -1.3552527156068805e-20
- 9.92373094506685e-14
- 0.0
- 9.456511637119525e-14
- -2.710505431213761e-20
- -2.710505431213761e-20
effort:
- -0.01757243383342199
- -0.050442706423827276
- -1.6940658945086007e-18
- -0.002904217972807749
- 0.0008924617822008595
- 8.149870462295267e-20
---
header:
  stamp:
    sec: 52
    nanosec: 278000000
  frame_id: base_link
name:
- elbow_joint
- shoulder_lift_joint
- shoulder_pan_joint
- wrist_1_joint
- wrist_2_joint
- wrist_3_joint
position:
- -6.487532437285614e-08
- -1.5699999571617198
- 1.0095518404877389e-07
- -1.5699997883740777
- -1.1050984334378252e-07
- -1.8955396661360103e-07
velocity:
- -1.3552527156068805e-20
- 9.92373094506685e-14
- 0.0
- 9.456508926614093e-14
- -2.710505431213761e-20
- -2.710505431213761e-20
effort:
- -0.01757243383342199
- -0.050442706423827276
- -1.6940658945086007e-18
- -0.002904217972807749
- 0.0008924617822008595
- 7.451775261740261e-20
---
header:
  stamp:
    sec: 52
    nanosec: 278000000
  frame_id: base_link
name:
- elbow_joint
- shoulder_lift_joint
- shoulder_pan_joint
- wrist_1_joint
- wrist_2_joint
- wrist_3_joint
position:
- -6.487532437285614e-08
- -1.5699999571617198
- 1.0095518404877392e-07
- -1.5699997883740777
- -1.1050984334378248e-07
- -1.89553966613601e-07
velocity:
- 0.0
- 9.923731622693208e-14
- 0.0
- 9.456508926614093e-14
- 5.421010862427522e-20
- -2.710505431213761e-20
effort:
- -0.017572433833421976
- -0.05044270642382726
- -6.776263578034403e-18
- -0.002904217972807747
- 0.0008924617822008591
- 8.156009693404056e-20
---
header:
  stamp:
    sec: 52
    nanosec: 278000000
  frame_id: base_link
name:
- elbow_joint
- shoulder_lift_joint
- shoulder_pan_joint
- wrist_1_joint
- wrist_2_joint
- wrist_3_joint
position:
- -6.487532437285611e-08
- -1.5699999571617198
- 1.0095518404877388e-07
- -1.5699997883740777
- -1.1050984334378247e-07
- -1.8955396661360092e-07
velocity:
- 1.3552527156068805e-20
- 9.923730267440492e-14
- -1.3552527156068805e-20
- 9.456508926614093e-14
- -1.3552527156068805e-20
- 2.710505431213761e-20
effort:
- -0.017572433833421993
- -0.05044270642382728
- 3.3881317890172014e-18
- -0.00290421797280775
- 0.0008924617822008596
- 6.753680061185256e-20
---
header:
  stamp:
    sec: 52
    nanosec: 288000000
  frame_id: base_link
name:
- elbow_joint
- shoulder_lift_joint
- shoulder_pan_joint
- wrist_1_joint
- wrist_2_joint
- wrist_3_joint
position:
- -6.487532437285607e-08
- -1.5699999571617198
- 1.0095518404877385e-07
- -1.5699997883740777
- -1.1050984334378248e-07
- -1.8955396661360098e-07
velocity:
- 0.0
- 9.923730267440492e-14
- 0.0
- 9.456511637119525e-14
- -2.710505431213761e-20
- -5.421010862427522e-20
effort:
- -0.017572433833421996
- -0.050442706423827276
- -1.6940658945086007e-18
- -0.002904217972807749
- 0.0008924617822008596
- 8.849096573843999e-20
---
header:
  stamp:
    sec: 52
    nanosec: 290000000
  frame_id: base_link
name:
- elbow_joint
- shoulder_lift_joint
- shoulder_pan_joint
- wrist_1_joint
- wrist_2_joint
- wrist_3_joint
position:
- -6.487532437285606e-08
- -1.5699999571617198
- 1.0095518404877382e-07
- -1.5699997883740777
- -1.1050984334378247e-07
- -1.89553966613601e-07
velocity:
- -1.3552527156068805e-20
- 9.923730267440492e-14
- 0.0
- 9.456511637119525e-14
- -1.3552527156068805e-20
- -5.421010862427522e-20
effort:
- -0.017572433833421996
- -0.050442706423827276
- -1.6940658945086007e-18
- -0.002904217972807749
- 0.0008924617822008596
- 8.151001373288992e-20
---
header:
  stamp:
    sec: 52
    nanosec: 292000000
  frame_id: base_link
name:
- elbow_joint
- shoulder_lift_joint
- shoulder_pan_joint
- wrist_1_joint
- wrist_2_joint
- wrist_3_joint
position:
- -6.48753243728561e-08
- -1.5699999571617198
- 1.0095518404877384e-07
- -1.5699997883740777
- -1.1050984334378244e-07
- -1.8955396661360103e-07
velocity:
- 0.0
- 9.923730267440492e-14
- 0.0
- 9.456511637119525e-14
- 2.710505431213761e-20
- 0.0
effort:
- -0.01757243383342198
- -0.05044270642382726
- -1.6940658945086007e-18
- -0.0029042179728077477
- 0.0008924617822008594
- 9.54993827252662e-20
---
header:
  stamp:
    sec: 52
    nanosec: 294000000
  frame_id: base_link
name:
- elbow_joint
- shoulder_lift_joint
- shoulder_pan_joint
- wrist_1_joint
- wrist_2_joint
- wrist_3_joint
position:
- -6.487532437285608e-08
- -1.5699999571617198
- 1.0095518404877384e-07
- -1.5699997883740777
- -1.1050984334378244e-07
- -1.8955396661360098e-07
velocity:
- 4.0657581468206416e-20
- 9.923730267440492e-14
- -2.710505431213761e-20
- 9.456498084592369e-14
- 1.3552527156068805e-20
- 8.131516293641283e-20
effort:
- -0.017572433833421955
- -0.05044270642382723
- -8.470329472543003e-18
- -0.002904217972807747
- 0.0008924617822008589
- 8.847965662850268e-20
---
header:
  stamp:
    sec: 52
    nanosec: 296000000
  frame_id: base_link
name:
- elbow_joint
- shoulder_lift_joint
- shoulder_pan_joint
- wrist_1_joint
- wrist_2_joint
- wrist_3_joint
position:
- -6.48753243728561e-08
- -1.5699999571617198
- 1.0095518404877385e-07
- -1.5699997883740777
- -1.1050984334378243e-07
- -1.8955396661360095e-07
velocity:
- -1.3552527156068805e-20
- 9.92373094506685e-14
- 1.3552527156068805e-20
- 9.456511637119525e-14
- -1.3552527156068805e-20
- -2.710505431213761e-20
effort:
- -0.017572433833421996
- -0.050442706423827297
- 5.082197683525802e-18
- -0.0029042179728077495
- 0.0008924617822008597
- 7.451775261740262e-20
---
header:
  stamp:
    sec: 52
    nanosec: 298000000
  frame_id: base_link
name:
- elbow_joint
- shoulder_lift_joint
- shoulder_pan_joint
- wrist_1_joint
- wrist_2_joint
- wrist_3_joint
position:
- -6.487532437285607e-08
- -1.5699999571617198
- 1.0095518404877382e-07
- -1.5699997883740777
- -1.1050984334378242e-07
- -1.8955396661360095e-07
velocity:
- 2.710505431213761e-20
- 9.923729589814134e-14
- -2.710505431213761e-20
- 9.456503505603231e-14
- 0.0
- -5.421010862427522e-20
effort:
- -0.017572433833421986
- -0.050442706423827276
- 0.0
- -0.0029042179728077495
- 0.0008924617822008595
- 4.658101989813122e-20
---
header:
  stamp:
    sec: 52
    nanosec: 300000000
  frame_id: base_link
name:
- elbow_joint
- shoulder_lift_joint
- shoulder_pan_joint
- wrist_1_joint
- wrist_2_joint
- wrist_3_joint
position:
- -6.48753243728561e-08
- -1.5699999571617198
- 1.0095518404877384e-07
- -1.5699997883740777
- -1.1050984334378243e-07
- -1.89553966613601e-07
velocity:
- -1.3552527156068805e-20
- 9.92373094506685e-14
- 1.3552527156068805e-20
- 9.456508926614093e-14
- -2.710505431213761e-20
- 0.0
effort:
- -0.017572433833421993
- -0.05044270642382728
- 3.3881317890172014e-18
- -0.00290421797280775
- 0.0008924617822008596
- 8.847965662850275e-20
---
header:
  stamp:
    sec: 52
    nanosec: 302000000
  frame_id: base_link
name:
- elbow_joint
- shoulder_lift_joint
- shoulder_pan_joint
- wrist_1_joint
- wrist_2_joint
- wrist_3_joint
position:
- -6.487532437285608e-08
- -1.5699999571617198
- 1.0095518404877385e-07
- -1.5699997883740777
- -1.1050984334378244e-07
- -1.8955396661360098e-07
velocity:
- 0.0
- 9.923730267440492e-14
- 1.3552527156068805e-20
- 9.456514347624956e-14
- 0.0
- -2.710505431213761e-20
effort:
- -0.017572433833421993
- -0.05044270642382728
- 1.6940658945086007e-18
- -0.002904217972807749
- 0.0008924617822008598
- 8.154717223696949e-20
---
header:
  stamp:
    sec: 52
    nanosec: 304000000
  frame_id: base_link
name:
- elbow_joint
- shoulder_lift_joint
- shoulder_pan_joint
- wrist_1_joint
- wrist_2_joint
- wrist_3_joint
position:
- -6.487532437285612e-08
- -1.5699999571617198
- 1.0095518404877386e-07
- -1.5699997883740777
- -1.1050984334378252e-07
- -1.8955396661360106e-07
velocity:
- -2.710505431213761e-20
- 9.92373094506685e-14
- 1.3552527156068805e-20
- 9.456517058130387e-14
- -5.421010862427522e-20
- -1.0842021724855044e-19
effort:
- -0.017572433833421993
- -0.05044270642382728
- 1.6940658945086007e-18
- -0.002904217972807749
- 0.0008924617822008596
- 6.75481097217898e-20
---
header:
  stamp:
    sec: 52
    nanosec: 306000000
  frame_id: base_link
name:
- elbow_joint
- shoulder_lift_joint
- shoulder_pan_joint
- wrist_1_joint
- wrist_2_joint
- wrist_3_joint
position:
- -6.48753243728561e-08
- -1.5699999571617198
- 1.0095518404877384e-07
- -1.5699997883740777
- -1.1050984334378247e-07
- -1.89553966613601e-07
velocity:
- 2.710505431213761e-20
- 9.923729589814134e-14
- -2.710505431213761e-20
- 9.456503505603231e-14
- 1.3552527156068805e-20
- 5.421010862427522e-20
effort:
- -0.017572433833421986
- -0.050442706423827276
- 0.0
- -0.0029042179728077495
- 0.0008924617822008594
- 8.845380723436043e-20
---
header:
  stamp:
    sec: 52
    nanosec: 308000000
  frame_id: base_link
name:
- elbow_joint
- shoulder_lift_joint
- shoulder_pan_joint
- wrist_1_joint
- wrist_2_joint
- wrist_3_joint
position:
- -6.487532437285611e-08
- -1.5699999571617198
- 1.0095518404877385e-07
- -1.5699997883740777
- -1.105098433437825e-07
- -1.8955396661360095e-07
velocity:
- 0.0
- 9.92373094506685e-14
- 0.0
- 9.456508926614093e-14
- 0.0
- 8.131516293641283e-20
effort:
- -0.01757243383342198
- -0.05044270642382726
- -5.082197683525802e-18
- -0.0029042179728077486
- 0.0008924617822008593
- 1.0946128673636633e-19
---
header:
  stamp:
    sec: 52
    nanosec: 310000000
  frame_id: base_link
name:
- elbow_joint
- shoulder_lift_joint
- shoulder_pan_joint
- wrist_1_joint
- wrist_2_joint
- wrist_3_joint
position:
- -6.48753243728561e-08
- -1.5699999571617198
- 1.0095518404877385e-07
- -1.5699997883740777
- -1.105098433437825e-07
- -1.8955396661360114e-07
velocity:
- 2.710505431213761e-20
- 9.923729589814134e-14
- -1.3552527156068805e-20
- 9.456508926614093e-14
- 2.710505431213761e-20
- -5.421010862427522e-20
effort:
- -0.01757243383342198
- -0.05044270642382727
- -3.3881317890172014e-18
- -0.002904217972807749
- 0.0008924617822008596
- 9.551069183520348e-20
---
header:
  stamp:
    sec: 52
    nanosec: 310000000
  frame_id: base_link
name:
- elbow_joint
- shoulder_lift_joint
- shoulder_pan_joint
- wrist_1_joint
- wrist_2_joint
- wrist_3_joint
position:
- -6.487532437285611e-08
- -1.5699999571617198
- 1.0095518404877386e-07
- -1.5699997883740777
- -1.1050984334378255e-07
- -1.8955396661360114e-07
velocity:
- -1.3552527156068805e-20
- 9.92373094506685e-14
- 0.0
- 9.456508926614093e-14
- -1.3552527156068805e-20
- -2.710505431213761e-20
effort:
- -0.01757243383342199
- -0.050442706423827276
- -1.6940658945086007e-18
- -0.002904217972807749
- 0.0008924617822008598
- 7.455491112148215e-20
---
header:
  stamp:
    sec: 52
    nanosec: 313000000
  frame_id: base_link
name:
- elbow_joint
- shoulder_lift_joint
- shoulder_pan_joint
- wrist_1_joint
- wrist_2_joint
- wrist_3_joint
position:
- -6.487532437285611e-08
- -1.5699999571617198
- 1.0095518404877389e-07
- -1.5699997883740777
- -1.1050984334378254e-07
- -1.8955396661360106e-07
velocity:
- 0.0
- 9.923731622693208e-14
- 0.0
- 9.456508926614093e-14
- 4.0657581468206416e-20
- -2.710505431213761e-20
effort:
- -0.017572433833421976
- -0.05044270642382726
- -6.776263578034403e-18
- -0.002904217972807747
- 0.0008924617822008591
- 6.759819292294043e-20
---
header:
  stamp:
    sec: 52
    nanosec: 313000000
  frame_id: base_link
name:
- elbow_joint
- shoulder_lift_joint
- shoulder_pan_joint
- wrist_1_joint
- wrist_2_joint
- wrist_3_joint
position:
- -6.487532437285608e-08
- -1.5699999571617198
- 1.0095518404877389e-07
- -1.5699997883740777
- -1.1050984334378242e-07
- -1.8955396661360103e-07
velocity:
- 1.3552527156068805e-20
- 9.923730267440492e-14
- -1.3552527156068805e-20
- 9.456508926614093e-14
- 9.486769009248164e-20
- -2.710505431213761e-20
effort:
- -0.017572433833421976
- -0.05044270642382726
- -6.776263578034403e-18
- -0.002904217972807747
- 0.0008924617822008591
- 8.156009693404056e-20
---
header:
  stamp:
    sec: 52
    nanosec: 317000000
  frame_id: base_link
name:
- elbow_joint
- shoulder_lift_joint
- shoulder_pan_joint
- wrist_1_joint
- wrist_2_joint
- wrist_3_joint
position:
- -6.487532437285608e-08
- -1.5699999571617198
- 1.009551840487739e-07
- -1.5699997883740777
- -1.1050984334378243e-07
- -1.8955396661360103e-07
velocity:
- 0.0
- 9.923730267440492e-14
- 1.3552527156068805e-20
- 9.456508926614093e-14
- -2.710505431213761e-20
- 2.710505431213761e-20
effort:
- -0.017572433833421993
- -0.05044270642382728
- 1.6940658945086007e-18
- -0.00290421797280775
- 0.0008924617822008596
- 8.847965662850275e-20
---
header:
  stamp:
    sec: 52
    nanosec: 319000000
  frame_id: base_link
name:
- elbow_joint
- shoulder_lift_joint
- shoulder_pan_joint
- wrist_1_joint
- wrist_2_joint
- wrist_3_joint
position:
- -6.487532437285611e-08
- -1.5699999571617198
- 1.0095518404877388e-07
- -1.5699997883740777
- -1.1050984334378246e-07
- -1.8955396661360103e-07
velocity:
- 0.0
- 9.923730267440492e-14
- -2.710505431213761e-20
- 9.456506216108662e-14
- 1.3552527156068805e-20
- 2.710505431213761e-20
effort:
- -0.017572433833421986
- -0.05044270642382728
- 0.0
- -0.0029042179728077495
- 0.0008924617822008598
- 8.852812424251955e-20
---
header:
  stamp:
    sec: 52
    nanosec: 322000000
  frame_id: base_link
name:
- elbow_joint
- shoulder_lift_joint
- shoulder_pan_joint
- wrist_1_joint
- wrist_2_joint
- wrist_3_joint
position:
- -6.487532437285612e-08
- -1.5699999571617198
- 1.0095518404877389e-07
- -1.5699997883740777
- -1.105098433437825e-07
- -1.8955396661360103e-07
velocity:
- -2.710505431213761e-20
- 9.923731622693208e-14
- 1.3552527156068805e-20
- 9.456514347624956e-14
- -2.710505431213761e-20
- 2.710505431213761e-20
effort:
- -0.017572433833421996
- -0.050442706423827276
- 1.6940658945086007e-18
- -0.0029042179728077495
- 0.0008924617822008598
- 1.0246741003374518e-19
---
header:
  stamp:
    sec: 52
    nanosec: 322000000
  frame_id: base_link
name:
- elbow_joint
- shoulder_lift_joint
- shoulder_pan_joint
- wrist_1_joint
- wrist_2_joint
- wrist_3_joint
position:
- -6.487532437285608e-08
- -1.5699999571617198
- 1.0095518404877385e-07
- -1.5699997883740777
- -1.1050984334378239e-07
- -1.8955396661360103e-07
velocity:
- 1.3552527156068805e-20
- 9.923729589814134e-14
- -2.710505431213761e-20
- 9.456517058130387e-14
- 4.0657581468206416e-20
- -5.421010862427522e-20
effort:
- -0.017572433833422
- -0.050442706423827297
- 1.6940658945086007e-18
- -0.0029042179728077486
- 0.0008924617822008593
- 8.846673193143157e-20
---
header:
  stamp:
    sec: 52
    nanosec: 322000000
  frame_id: base_link
name:
- elbow_joint
- shoulder_lift_joint
- shoulder_pan_joint
- wrist_1_joint
- wrist_2_joint
- wrist_3_joint
position:
- -6.487532437285608e-08
- -1.5699999571617198
- 1.0095518404877381e-07
- -1.5699997883740777
- -1.105098433437824e-07
- -1.8955396661360098e-07
velocity:
- -1.3552527156068805e-20
- 9.92373094506685e-14
- 0.0
- 9.456503505603231e-14
- -4.0657581468206416e-20
- 2.710505431213761e-20
effort:
- -0.017572433833421993
- -0.050442706423827276
- 3.3881317890172014e-18
- -0.00290421797280775
- 0.0008924617822008596
- 7.451775261740262e-20
---
header:
  stamp:
    sec: 52
    nanosec: 328000000
  frame_id: base_link
name:
- elbow_joint
- shoulder_lift_joint
- shoulder_pan_joint
- wrist_1_joint
- wrist_2_joint
- wrist_3_joint
position:
- -6.48753243728561e-08
- -1.5699999571617198
- 1.0095518404877381e-07
- -1.5699997883740777
- -1.1050984334378247e-07
- -1.89553966613601e-07
velocity:
- -1.3552527156068805e-20
- 9.92373094506685e-14
- 1.3552527156068805e-20
- 9.456511637119525e-14
- -5.421010862427522e-20
- -2.710505431213761e-20
effort:
- -0.01757243383342199
- -0.050442706423827276
- 1.6940658945086007e-18
- -0.002904217972807749
- 0.0008924617822008596
- 8.849096573843999e-20
---
header:
  stamp:
    sec: 52
    nanosec: 330000000
  frame_id: base_link
name:
- elbow_joint
- shoulder_lift_joint
- shoulder_pan_joint
- wrist_1_joint
- wrist_2_joint
- wrist_3_joint
position:
- -6.487532437285604e-08
- -1.5699999571617198
- 1.0095518404877381e-07
- -1.5699997883740777
- -1.1050984334378247e-07
- -1.8955396661360092e-07
velocity:
- 5.421010862427522e-20
- 9.923729589814134e-14
- -2.710505431213761e-20
- 9.456498084592369e-14
- 2.710505431213761e-20
- 5.421010862427522e-20
effort:
- -0.017572433833421965
- -0.05044270642382724
- -8.470329472543003e-18
- -0.0029042179728077477
- 0.0008924617822008591
- 7.454198642441096e-20
---
header:
  stamp:
    sec: 52
    nanosec: 332000000
  frame_id: base_link
name:
- elbow_joint
- shoulder_lift_joint
- shoulder_pan_joint
- wrist_1_joint
- wrist_2_joint
- wrist_3_joint
position:
- -6.487532437285607e-08
- -1.5699999571617198
- 1.0095518404877382e-07
- -1.5699997883740777
- -1.1050984334378247e-07
- -1.8955396661360095e-07
velocity:
- 0.0
- 9.923730267440492e-14
- 0.0
- 9.456506216108662e-14
- -1.3552527156068805e-20
- 5.421010862427522e-20
effort:
- -0.017572433833421983
- -0.050442706423827276
- -1.6940658945086007e-18
- -0.00290421797280775
- 0.0008924617822008596
- 8.148577992588154e-20
---
header:
  stamp:
    sec: 52
    nanosec: 334000000
  frame_id: base_link
name:
- elbow_joint
- shoulder_lift_joint
- shoulder_pan_joint
- wrist_1_joint
- wrist_2_joint
- wrist_3_joint
position:
- -6.487532437285611e-08
- -1.5699999571617198
- 1.0095518404877384e-07
- -1.5699997883740777
- -1.1050984334378251e-07
- -1.8955396661360103e-07
velocity:
- -2.710505431213761e-20
- 9.92373094506685e-14
- 0.0
- 9.456511637119525e-14
- -4.0657581468206416e-20
- -2.710505431213761e-20
effort:
- -0.017572433833421986
- -0.05044270642382726
- -5.082197683525802e-18
- -0.0029042179728077495
- 0.0008924617822008594
- 8.147285522881037e-20
---
header:
  stamp:
    sec: 52
    nanosec: 336000000
  frame_id: base_link
name:
- elbow_joint
- shoulder_lift_joint
- shoulder_pan_joint
- wrist_1_joint
- wrist_2_joint
- wrist_3_joint
position:
- -6.48753243728561e-08
- -1.5699999571617198
- 1.0095518404877385e-07
- -1.5699997883740777
- -1.1050984334378246e-07
- -1.895539666136011e-07
velocity:
- 1.3552527156068805e-20
- 9.923730267440492e-14
- 0.0
- 9.456508926614093e-14
- -1.3552527156068805e-20
- -2.710505431213761e-20
effort:
- -0.017572433833421986
- -0.050442706423827276
- -1.6940658945086007e-18
- -0.002904217972807749
- 0.0008924617822008592
- 8.143569672473082e-20
---
header:
  stamp:
    sec: 52
    nanosec: 337000000
  frame_id: base_link
name:
- elbow_joint
- shoulder_lift_joint
- shoulder_pan_joint
- wrist_1_joint
- wrist_2_joint
- wrist_3_joint
position:
- -6.487532437285611e-08
- -1.5699999571617198
- 1.0095518404877385e-07
- -1.5699997883740777
- -1.105098433437825e-07
- -1.895539666136011e-07
velocity:
- 1.3552527156068805e-20
- 9.923730267440492e-14
- -1.3552527156068805e-20
- 9.456508926614093e-14
- -1.3552527156068805e-20
- -2.710505431213761e-20
effort:
- -0.017572433833421972
- -0.050442706423827255
- -3.3881317890172014e-18
- -0.0029042179728077477
- 0.0008924617822008592
- 7.452906172733982e-20
---
header:
  stamp:
    sec: 52
    nanosec: 340000000
  frame_id: base_link
name:
- elbow_joint
- shoulder_lift_joint
- shoulder_pan_joint
- wrist_1_joint
- wrist_2_joint
- wrist_3_joint
position:
- -6.487532437285607e-08
- -1.5699999571617198
- 1.0095518404877382e-07
- -1.5699997883740777
- -1.1050984334378251e-07
- -1.895539666136011e-07
velocity:
- 0.0
- 9.923730267440492e-14
- 0.0
- 9.456511637119525e-14
- -2.710505431213761e-20
- -2.710505431213761e-20
effort:
- -0.017572433833421996
- -0.050442706423827276
- -1.6940658945086007e-18
- -0.002904217972807749
- 0.0008924617822008596
- 8.849096573843999e-20
---
header:
  stamp:
    sec: 52
    nanosec: 342000000
  frame_id: base_link
name:
- elbow_joint
- shoulder_lift_joint
- shoulder_pan_joint
- wrist_1_joint
- wrist_2_joint
- wrist_3_joint
position:
- -6.487532437285606e-08
- -1.5699999571617198
- 1.009551840487738e-07
- -1.5699997883740777
- -1.105098433437825e-07
- -1.8955396661360108e-07
velocity:
- -1.3552527156068805e-20
- 9.923730267440492e-14
- 0.0
- 9.456511637119525e-14
- -1.3552527156068805e-20
- -2.710505431213761e-20
effort:
- -0.017572433833421996
- -0.050442706423827276
- -1.6940658945086007e-18
- -0.002904217972807749
- 0.0008924617822008596
- 8.151001373288992e-20
---
header:
  stamp:
    sec: 52
    nanosec: 343000000
  frame_id: base_link
name:
- elbow_joint
- shoulder_lift_joint
- shoulder_pan_joint
- wrist_1_joint
- wrist_2_joint
- wrist_3_joint
position:
- -6.48753243728561e-08
- -1.5699999571617198
- 1.0095518404877381e-07
- -1.5699997883740777
- -1.1050984334378247e-07
- -1.895539666136011e-07
velocity:
- 0.0
- 9.923730267440492e-14
- 0.0
- 9.456511637119525e-14
- 2.710505431213761e-20
- 0.0
effort:
- -0.01757243383342198
- -0.05044270642382726
- -1.6940658945086007e-18
- -0.0029042179728077477
- 0.0008924617822008594
- 9.54993827252662e-20
---
header:
  stamp:
    sec: 52
    nanosec: 345000000
  frame_id: base_link
name:
- elbow_joint
- shoulder_lift_joint
- shoulder_pan_joint
- wrist_1_joint
- wrist_2_joint
- wrist_3_joint
position:
- -6.487532437285608e-08
- -1.5699999571617198
- 1.0095518404877381e-07
- -1.5699997883740777
- -1.1050984334378247e-07
- -1.8955396661360106e-07
velocity:
- 4.0657581468206416e-20
- 9.923730267440492e-14
- -2.710505431213761e-20
- 9.456498084592369e-14
- 1.3552527156068805e-20
- 8.131516293641283e-20
effort:
- -0.017572433833421955
- -0.05044270642382723
- -8.470329472543003e-18
- -0.002904217972807747
- 0.0008924617822008589
- 8.847965662850268e-20
---
header:
  stamp:
    sec: 52
    nanosec: 348000000
  frame_id: base_link
name:
- elbow_joint
- shoulder_lift_joint
- shoulder_pan_joint
- wrist_1_joint
- wrist_2_joint
- wrist_3_joint
position:
- -6.48753243728561e-08
- -1.5699999571617198
- 1.0095518404877382e-07
- -1.5699997883740777
- -1.1050984334378246e-07
- -1.8955396661360098e-07
velocity:
- -1.3552527156068805e-20
- 9.92373094506685e-14
- 1.3552527156068805e-20
- 9.456511637119525e-14
- -1.3552527156068805e-20
- 0.0
effort:
- -0.017572433833421996
- -0.050442706423827297
- 5.082197683525802e-18
- -0.0029042179728077495
- 0.0008924617822008597
- 7.451775261740262e-20
---
header:
  stamp:
    sec: 52
    nanosec: 350000000
  frame_id: base_link
name:
- elbow_joint
- shoulder_lift_joint
- shoulder_pan_joint
- wrist_1_joint
- wrist_2_joint
- wrist_3_joint
position:
- -6.487532437285607e-08
- -1.5699999571617198
- 1.009551840487738e-07
- -1.5699997883740777
- -1.1050984334378244e-07
- -1.8955396661360098e-07
velocity:
- 2.710505431213761e-20
- 9.923729589814134e-14
- -2.710505431213761e-20
- 9.456503505603231e-14
- 0.0
- -5.421010862427522e-20
effort:
- -0.017572433833421986
- -0.050442706423827276
- 0.0
- -0.0029042179728077495
- 0.0008924617822008595
- 4.658101989813122e-20
---
header:
  stamp:
    sec: 52
    nanosec: 352000000
  frame_id: base_link
name:
- elbow_joint
- shoulder_lift_joint
- shoulder_pan_joint
- wrist_1_joint
- wrist_2_joint
- wrist_3_joint
position:
- -6.48753243728561e-08
- -1.5699999571617198
- 1.0095518404877381e-07
- -1.5699997883740777
- -1.1050984334378246e-07
- -1.8955396661360103e-07
velocity:
- -1.3552527156068805e-20
- 9.92373094506685e-14
- 1.3552527156068805e-20
- 9.456508926614093e-14
- -2.710505431213761e-20
- 0.0
effort:
- -0.017572433833421993
- -0.05044270642382728
- 3.3881317890172014e-18
- -0.00290421797280775
- 0.0008924617822008596
- 8.847965662850275e-20
---
header:
  stamp:
    sec: 52
    nanosec: 354000000
  frame_id: base_link
name:
- elbow_joint
- shoulder_lift_joint
- shoulder_pan_joint
- wrist_1_joint
- wrist_2_joint
- wrist_3_joint
position:
- -6.487532437285608e-08
- -1.5699999571617198
- 1.0095518404877382e-07
- -1.5699997883740777
- -1.1050984334378247e-07
- -1.89553966613601e-07
velocity:
- 0.0
- 9.923730267440492e-14
- 1.3552527156068805e-20
- 9.456514347624956e-14
- 0.0
- -2.710505431213761e-20
effort:
- -0.017572433833421993
- -0.05044270642382728
- 1.6940658945086007e-18
- -0.002904217972807749
- 0.0008924617822008598
- 8.154717223696949e-20
---
header:
  stamp:
    sec: 52
    nanosec: 355000000
  frame_id: base_link
name:
- elbow_joint
- shoulder_lift_joint
- shoulder_pan_joint
- wrist_1_joint
- wrist_2_joint
- wrist_3_joint
position:
- -6.487532437285612e-08
- -1.5699999571617198
- 1.0095518404877384e-07
- -1.5699997883740777
- -1.1050984334378255e-07
- -1.8955396661360103e-07
velocity:
- -2.710505431213761e-20
- 9.92373094506685e-14
- 1.3552527156068805e-20
- 9.456517058130387e-14
- -5.421010862427522e-20
- -8.131516293641283e-20
effort:
- -0.017572433833421993
- -0.05044270642382728
- 1.6940658945086007e-18
- -0.002904217972807749
- 0.0008924617822008596
- 6.75481097217898e-20
---
header:
  stamp:
    sec: 52
    nanosec: 358000000
  frame_id: base_link
name:
- elbow_joint
- shoulder_lift_joint
- shoulder_pan_joint
- wrist_1_joint
- wrist_2_joint
- wrist_3_joint
position:
- -6.48753243728561e-08
- -1.5699999571617198
- 1.0095518404877381e-07
- -1.5699997883740777
- -1.105098433437825e-07
- -1.8955396661360098e-07
velocity:
- 2.710505431213761e-20
- 9.923729589814134e-14
- -2.710505431213761e-20
- 9.456503505603231e-14
- 1.3552527156068805e-20
- 5.421010862427522e-20
effort:
- -0.017572433833421986
- -0.050442706423827276
- 0.0
- -0.0029042179728077495
- 0.0008924617822008594
- 8.845380723436043e-20
---
header:
  stamp:
    sec: 52
    nanosec: 360000000
  frame_id: base_link
name:
- elbow_joint
- shoulder_lift_joint
- shoulder_pan_joint
- wrist_1_joint
- wrist_2_joint
- wrist_3_joint
position:
- -6.487532437285611e-08
- -1.5699999571617198
- 1.0095518404877382e-07
