header:
  stamp:
    sec: 218
    nanosec: 816000000
  frame_id: base_link
name:
- elbow_joint
- shoulder_lift_joint
- shoulder_pan_joint
- wrist_1_joint
- wrist_2_joint
- wrist_3_joint
position:
- 0.9999999875113276
- -0.9792861697838973
- -4.781190064075937e-09
- -1.0000000001703537
- -1.5000000000018365
- 7.131173946688385e-16
velocity:
- -4.141746419786263e-09
- 0.008576427097120828
- -1.5397213408777088e-09
- -6.649828032515882e-11
- -8.269678344885456e-13
- 5.728908016380818e-14
effort:
- -19.55312411116247
- -150.0
- 82.74554080923554
- -1.1993071330054699
- 0.032808947296559116
- 9.644104696461237e-07
---
header:
  stamp:
    sec: 218
    nanosec: 818000000
  frame_id: base_link
name:
- elbow_joint
- shoulder_lift_joint
- shoulder_pan_joint
- wrist_1_joint
- wrist_2_joint
- wrist_3_joint
position:
- 0.9999999875096781
- -0.9792690072289014
- -4.781792472513957e-09
- -1.0000000001704317
- -1.5000000000018383
- 8.353320245781392e-16
velocity:
- -8.015791034404751e-10
- 0.008582876003948877
- -2.9171373389785815e-10
- -3.882307095161991e-11
- -1.066282478978664e-12
- 8.996313893491759e-14
effort:
- -19.614200014636644
- -150.0
- 83.71115002548298
- -1.201658466968717
- 0.03289401902826191
- 5.87947119147923e-08
---
header:
  stamp:
    sec: 218
    nanosec: 820000000
  frame_id: base_link
name:
- elbow_joint
- shoulder_lift_joint
- shoulder_pan_joint
- wrist_1_joint
- wrist_2_joint
- wrist_3_joint
position:
- 0.9999999875087091
- -0.9792519165724144
- -4.782215599395797e-09
- -1.0000000001705338
- -1.5000000000018376
- 7.154247395222135e-16
velocity:
- -4.0182256428461516e-09
- 0.008571538318216134
- -1.4814455853457559e-09
- -5.6546837985714873e-11
- -6.781120803767138e-13
- -8.465071092006449e-15
effort:
- -19.553064046547412
- -150.0
- 82.7235051823041
- -1.1992565650059426
- 0.03280819523171883
- 9.643574830861183e-07
---
header:
  stamp:
    sec: 218
    nanosec: 822000000
  frame_id: base_link
name:
- elbow_joint
- shoulder_lift_joint
- shoulder_pan_joint
- wrist_1_joint
- wrist_2_joint
- wrist_3_joint
position:
- 0.9999999875110752
- -0.9792348307418162
- -4.7813862817946595e-09
- -1.0000000001706053
- -1.5000000000018374
- 6.148840699824188e-16
velocity:
- 3.1050478351696276e-09
- 0.008511039365521342
- 1.0886725496789262e-09
- -4.139690069145281e-11
- -1.7792885220746513e-13
- -8.791898415891342e-14
effort:
- -19.697250616853033
- -150.0
- 93.97575989711925
- -1.2048408439799598
- 0.03300941130218399
- -1.172519165306136e-06
---
header:
  stamp:
    sec: 218
    nanosec: 824000000
  frame_id: base_link
name:
- elbow_joint
- shoulder_lift_joint
- shoulder_pan_joint
- wrist_1_joint
- wrist_2_joint
- wrist_3_joint
position:
- 0.9999999875060726
- -0.9792177005714712
- -4.7831965498588e-09
- -1.00000000017068
- -1.5000000000018392
- 2.7413895122954675e-16
velocity:
- -8.868105694226358e-10
- 0.008566712476499608
- -3.050813299904087e-10
- -2.6739677421068475e-11
- 3.9109340765897116e-15
- -2.1912202954887938e-13
effort:
- -19.614030428040447
- -150.0
- 83.63031610902524
- -1.2015794767164694
- 0.03289282393170032
- 5.966018901643602e-08
---
header:
  stamp:
    sec: 218
    nanosec: 826000000
  frame_id: base_link
name:
- elbow_joint
- shoulder_lift_joint
- shoulder_pan_joint
- wrist_1_joint
- wrist_2_joint
- wrist_3_joint
position:
- 0.9999999875087183
- -0.9792006244945678
- -4.782246360917382e-09
- -1.0000000001707374
- -1.5000000000018399
- 1.5133955687851594e-16
velocity:
- 3.2361671571667916e-09
- 0.008506164683336469
- 1.1456962227887613e-09
- -3.465451523291217e-11
- 3.4074045668353037e-13
- -1.2382803116217644e-13
effort:
- -19.697181572149102
- -150.0
- 93.95411075781244
- -1.2047899919702432
- 0.033008647624633916
- -1.172438424966719e-06
---
header:
  stamp:
    sec: 218
    nanosec: 828000000
  frame_id: base_link
name:
- elbow_joint
- shoulder_lift_joint
- shoulder_pan_joint
- wrist_1_joint
- wrist_2_joint
- wrist_3_joint
position:
- 0.9999999875039085
- -0.9791835040784536
- -4.783969816042306e-09
- -1.0000000001707994
- -1.50000000000184
- 1.9462909333053954e-16
velocity:
- -7.905493013687925e-10
- 0.008561835870576559
- -2.6174615925210476e-10
- -2.0390111094784752e-11
- -3.6724789875819397e-13
- 1.5508807345993025e-14
effort:
- -19.61396548670904
- -150.0
- 83.60838064032998
- -1.2015287969640507
- 0.03289206638938204
- 5.96789620486407e-08
---
header:
  stamp:
    sec: 218
    nanosec: 830000000
  frame_id: base_link
name:
- elbow_joint
- shoulder_lift_joint
- shoulder_pan_joint
- wrist_1_joint
- wrist_2_joint
- wrist_3_joint
position:
- 0.9999999875034513
- -0.9791664554759543
- -4.7841559158536486e-09
- -1.0000000001708673
- -1.500000000001839
- -2.6645294371158058e-17
velocity:
- -3.8071233440101215e-09
- 0.008550508209321652
- -1.3790394689898455e-09
- -3.835110988547122e-11
- 1.7957857423311907e-13
- -1.5013137217786965e-13
effort:
- -19.5529128311035
- -150.0
- 82.62520236898384
- -1.1991303494582717
- 0.03280631643107928
- 9.642480757902676e-07
---
header:
  stamp:
    sec: 218
    nanosec: 832000000
  frame_id: base_link
name:
- elbow_joint
- shoulder_lift_joint
- shoulder_pan_joint
- wrist_1_joint
- wrist_2_joint
- wrist_3_joint
position:
- 0.9999999875023872
- -0.9791493447424241
- -4.78447696683242e-09
- -1.000000000170895
- -1.5000000000018405
- -3.584431612382857e-17
velocity:
- -5.091950194824335e-10
- 0.008556967996787642
- -1.5110819735243697e-10
- -1.3875488350531887e-11
- -8.847870353045906e-13
- -3.291529375448743e-15
effort:
- -19.613970543584557
- -150.0
- 83.59113248872842
- -1.2014810430697809
- 0.032891365155475506
- 5.889491041157723e-08
---
header:
  stamp:
    sec: 218
    nanosec: 834000000
  frame_id: base_link
name:
- elbow_joint
- shoulder_lift_joint
- shoulder_pan_joint
- wrist_1_joint
- wrist_2_joint
- wrist_3_joint
position:
- 0.9999999875020582
- -0.9791323058699859
- -4.7846043478617554e-09
- -1.0000000001709541
- -1.5000000000018419
- 1.3509544361914326e-16
velocity:
- -3.752393097633533e-09
- 0.008545641710715575
- -1.3531226252319617e-09
- -3.381874077654223e-11
- -1.4667945677504513e-12
- 7.41424608340091e-14
effort:
- -19.552852867961583
- -150.0
- 82.60326676245344
- -1.1990799294013816
- 0.03280556651064734
- 9.641952095165807e-07
---
header:
  stamp:
    sec: 218
    nanosec: 836000000
  frame_id: base_link
name:
- elbow_joint
- shoulder_lift_joint
- shoulder_pan_joint
- wrist_1_joint
- wrist_2_joint
- wrist_3_joint
position:
- 0.9999999875049915
- -0.9791152718012242
- -4.783512595576609e-09
- -1.0000000001709874
- -1.5000000000018432
- 1.5248832329037295e-16
velocity:
- 3.439768209850813e-09
- 0.008485168710493466
- 1.2388256915522172e-09
- -2.3306877153066174e-11
- -5.767773411657906e-13
- -4.707665464051547e-14
effort:
- -19.697002455868436
- -150.0
- 93.85696747108956
- -1.2046628321984094
- 0.03300673468077274
- -1.1721480050013859e-06
---
header:
  stamp:
    sec: 218
    nanosec: 838000000
  frame_id: base_link
name:
- elbow_joint
- shoulder_lift_joint
- shoulder_pan_joint
- wrist_1_joint
- wrist_2_joint
- wrist_3_joint
position:
- 0.9999999875004086
- -0.9790981933850201
- -4.785118682930215e-09
- -1.0000000001710254
- -1.5000000000018432
- 8.530286253655158e-17
velocity:
- -6.720725712061615e-10
- 0.008540838137164832
- -2.0110758891522806e-10
- -8.7199501092039e-12
- 7.566967885619391e-13
- 1.2703054753926413e-15
effort:
- -19.613801103108703
- -150.0
- 83.51045362066598
- -1.201402273925485
- 0.03289017339627174
- 5.976000363209512e-08
---
header:
  stamp:
    sec: 218
    nanosec: 840000000
  frame_id: base_link
name:
- elbow_joint
- shoulder_lift_joint
- shoulder_pan_joint
- wrist_1_joint
- wrist_2_joint
- wrist_3_joint
position:
- 0.9999999875035209
- -0.9790811690254897
- -4.783952496768687e-09
- -1.0000000001710518
- -1.500000000001842
- 7.889647452966061e-17
velocity:
- 3.5134104896250573e-09
- 0.008480316225312244
- 1.2696419313031754e-09
- -2.0465309378799382e-11
- 1.0932262040075358e-12
- 1.8453392026246407e-14
effort:
- -19.696933621881335
- -150.0
- 93.83541861770195
- -1.2046121329668407
- 0.033005973073007726
- -1.1720674852520227e-06
---
header:
  stamp:
    sec: 218
    nanosec: 842000000
  frame_id: base_link
name:
- elbow_joint
- shoulder_lift_joint
- shoulder_pan_joint
- wrist_1_joint
- wrist_2_joint
- wrist_3_joint
position:
- 0.9999999874990501
- -0.9790641003190411
- -4.7855096545958476e-09
- -1.0000000001710834
- -1.5000000000018423
- 2.0376620713916112e-16
velocity:
- -6.122288283977317e-10
- 0.008535983784391646
- -1.746538770813072e-10
- -5.414891679576123e-12
- -5.308678843740644e-13
- 1.3641648574647114e-13
effort:
- -19.613736228941924
- -150.0
- 83.4886230064651
- -1.2013517401976739
- 0.03288941808990643
- 5.977861735480952e-08
---
header:
  stamp:
    sec: 218
    nanosec: 844000000
  frame_id: base_link
name:
- elbow_joint
- shoulder_lift_joint
- shoulder_pan_joint
- wrist_1_joint
- wrist_2_joint
- wrist_3_joint
position:
- 0.9999999874989609
- -0.979047103389089
- -4.785524180733519e-09
- -1.0000000001711262
- -1.500000000001843
- 2.759547730280255e-16
velocity:
- -3.6633588749307444e-09
- 0.008524667392538165
- -1.3081336062113758e-09
- -2.487059700979205e-11
- -1.1454752077422192e-12
- 1.343592121241799e-14
effort:
- -19.55270181083548
- -150.0
- 82.50521488565475
- -1.1989540782879045
- 0.032803693242923246
- 9.640858172178348e-07
---
header:
  stamp:
    sec: 218
    nanosec: 844000000
  frame_id: base_link
name:
- elbow_joint
- shoulder_lift_joint
- shoulder_pan_joint
- wrist_1_joint
- wrist_2_joint
- wrist_3_joint
position:
- 0.9999999874981961
- -0.9790300443206964
- -4.785696197175408e-09
- -1.0000000001711276
- -1.5000000000018419
- 2.2191770307047897e-16
velocity:
- -3.587726088438714e-10
- 0.00853113813776372
- -7.633355471152459e-11
- -6.170275878777942e-13
- 5.967830396524931e-13
- -5.4782784211782065e-14
effort:
- -19.613741503666972
- -150.0
- 83.4714807899841
- -1.2013041392726225
- 0.03288871888837195
- 5.8994412888934394e-08
---
header:
  stamp:
    sec: 218
    nanosec: 848000000
  frame_id: base_link
name:
- elbow_joint
- shoulder_lift_joint
- shoulder_pan_joint
- wrist_1_joint
- wrist_2_joint
- wrist_3_joint
position:
- 0.9999999874981621
- -0.9790130570764998
- -4.785686463003606e-09
- -1.0000000001711666
- -1.5000000000018427
- 3.221850452425902e-16
velocity:
- -3.6420347102744666e-09
- 0.008519823056925852
- -1.2983078965210504e-09
- -2.2713250984879307e-11
- -6.537817162644011e-13
- 1.1991373605885203e-13
effort:
- -19.552641929437293
- -150.0
- 82.48337972710243
- -1.1989038047601426
- 0.03280294552140102
- 9.640329914518628e-07
---
header:
  stamp:
    sec: 218
    nanosec: 850000000
  frame_id: base_link
name:
- elbow_joint
- shoulder_lift_joint
- shoulder_pan_joint
- wrist_1_joint
- wrist_2_joint
- wrist_3_joint
position:
- 0.9999999828022618
- -0.9789960830680539
- -6.379546146720868e-09
- -1.000000000141324
- -1.5000000000019864
- 1.1398743678367473e-16
velocity:
- -2.3651335728409884e-06
- 0.008455113753651846
- -8.024057894142744e-07
- 1.5165068322013338e-08
- -7.200331216677958e-11
- -1.0762462969438058e-13
effort:
- -19.696874121373426
- -150.0
- 93.67760786779773
- -1.2044917761539353
- 0.033003792882632534
- -1.1711193983582123e-06
---
header:
  stamp:
    sec: 218
    nanosec: 852000000
  frame_id: base_link
name:
- elbow_joint
- shoulder_lift_joint
- shoulder_pan_joint
- wrist_1_joint
- wrist_2_joint
- wrist_3_joint
position:
- 0.9999999801880286
- -0.9789790607554714
- -7.292308011718005e-09
- -1.0000000001364535
- -1.5000000000021352
- -4.073049005456897e-17
velocity:
- -1.3045972186449123e-06
- 0.008512792284444117
- -4.554816561517117e-07
- 2.4448799283379764e-09
- -7.417869703901792e-11
- 1.1650955807768204e-13
effort:
- -19.613562711674152
- -150.0
- 83.34928880533307
- -1.2012251668392406
- 0.03288753845701382
- 5.988458977094226e-08
---
header:
  stamp:
    sec: 218
    nanosec: 854000000
  frame_id: base_link
name:
- elbow_joint
- shoulder_lift_joint
- shoulder_pan_joint
- wrist_1_joint
- wrist_2_joint
- wrist_3_joint
position:
- 0.9999999785337016
- -0.9789620907482015
- -7.887136910481897e-09
- -1.0000000001413047
- -1.5000000000022764
- 3.400730619235193e-17
velocity:
- -8.272470516431513e-07
- 0.008453153745798856
- -2.973065112265704e-07
- -2.35189033864964e-09
- -6.970552520607631e-11
- -3.329812554159206e-14
effort:
- -19.696681122831016
- -150.0
- 93.6949904208453
- -1.2044348217289975
- 0.033003257550782684
- -1.1713906433352024e-06
---
header:
  stamp:
    sec: 218
    nanosec: 856000000
  frame_id: base_link
name:
- elbow_joint
- shoulder_lift_joint
- shoulder_pan_joint
- wrist_1_joint
- wrist_2_joint
- wrist_3_joint
position:
- 0.9999999773915483
- -0.9789450755233858
- -8.310781544106852e-09
- -1.0000000001507028
- -1.5000000000024076
- 2.6913750848539655e-17
velocity:
- -5.690057789126818e-07
- 0.008509246186803295
- -2.1105792355176692e-07
- -4.681612244573918e-09
- -6.519537600752079e-11
- -7.099133563989724e-14
effort:
- -19.61350551276355
- -150.0
- 83.33632338268947
- -1.201175126735208
- 0.032886786385200546
- 5.984476665176553e-08
---
header:
  stamp:
    sec: 218
    nanosec: 858000000
  frame_id: base_link
name:
- elbow_joint
- shoulder_lift_joint
- shoulder_pan_joint
- wrist_1_joint
- wrist_2_joint
- wrist_3_joint
position:
- 0.9999999765757892
- -0.9789281138013435
- -8.622702611614726e-09
- -1.0000000001617038
- -1.5000000000025275
- 3.3771065772225673e-16
velocity:
- -4.048392492645575e-07
- 0.008449016062934517
- -1.5475576962769265e-07
- -5.421089475053913e-09
- -5.975533349383833e-11
- 2.1665183752919703e-13
effort:
- -19.696600172206217
- -150.0
- 93.67829476905767
- -1.2043835334886612
- 0.03300256017225612
- -1.1715627927411554e-06
---
header:
  stamp:
    sec: 218
    nanosec: 860000000
  frame_id: base_link
name:
- elbow_joint
- shoulder_lift_joint
- shoulder_pan_joint
- wrist_1_joint
- wrist_2_joint
- wrist_3_joint
position:
- 0.9999999759648893
- -0.9789111074052553
- -8.864134706349935e-09
- -1.0000000001736222
- -1.500000000002638
- 4.0878011012868154e-16
velocity:
- -3.03551083949416e-07
- 0.008504831396922619
- -1.1999910090078336e-07
- -5.934989402440593e-09
- -5.534970311943388e-11
- 8.637703182920453e-14
effort:
- -19.61344342422152
- -150.0
- 83.31995144779468
- -1.2011248927378337
- 0.03288603394637135
- 5.984346729100328e-08
---
header:
  stamp:
    sec: 218
    nanosec: 862000000
  frame_id: base_link
name:
- elbow_joint
- shoulder_lift_joint
- shoulder_pan_joint
- wrist_1_joint
- wrist_2_joint
- wrist_3_joint
position:
- 0.9999999755126594
- -0.9788941725043075
- -9.049291081997596e-09
- -1.0000000001853815
- -1.5000000000027378
- 3.5436421993206856e-16
velocity:
- -2.3153883965502942e-07
- 0.008493642177009634
- -9.46186452801482e-08
- -5.9467247157096986e-09
- -5.081866958495107e-11
- 1.3950266723045113e-14
effort:
- -19.552446126766814
- -150.0
- 82.33362364757791
- -1.1987289646206352
- 0.032800300997050724
- 9.639389987576553e-07
---
header:
  stamp:
    sec: 218
    nanosec: 864000000
  frame_id: base_link
name:
- elbow_joint
- shoulder_lift_joint
- shoulder_pan_joint
- wrist_1_joint
- wrist_2_joint
- wrist_3_joint
position:
- 0.999999975162639
- -0.9788771753173418
- -9.197736649367434e-09
- -1.000000000196881
- -1.5000000000028273
- 3.2440760548607683e-16
velocity:
- -1.7496108403909638e-07
- 0.00850020096554818
- -7.420428409319474e-08
- -5.749823983689645e-09
- -4.5069914814122036e-11
- -5.1498139520128605e-14
effort:
- -19.61344739366078
- -150.0
- 83.30660260301397
- -1.2010774390617627
- 0.03288532785132911
- 5.91216481011737e-08
---
header:
  stamp:
    sec: 218
    nanosec: 866000000
  frame_id: base_link
name:
- elbow_joint
- shoulder_lift_joint
- shoulder_pan_joint
- wrist_1_joint
- wrist_2_joint
- wrist_3_joint
position:
- 0.9999999748986077
- -0.9788602497846776
- -9.314486402643265e-09
- -1.000000000207769
- -1.5000000000029086
- 4.679603099318476e-16
velocity:
- -1.372189033701371e-07
- 0.008488957589662753
- -6.031945788058206e-08
- -5.49704585073741e-09
- -4.082942577782189e-11
- 1.8821695504239733e-14
effort:
- -19.552383474909014
- -150.0
- 82.31435970673697
- -1.198678733332459
- 0.03279955886042388
- 9.638902315734047e-07
---
header:
  stamp:
    sec: 218
    nanosec: 868000000
  frame_id: base_link
name:
- elbow_joint
- shoulder_lift_joint
- shoulder_pan_joint
- wrist_1_joint
- wrist_2_joint
- wrist_3_joint
position:
- 0.999999974706001
- -0.9788433289049777
- -9.404792466046301e-09
- -1.0000000002180978
- -1.5000000000029814
- 6.650807874248045e-16
velocity:
- -9.280875958375678e-08
- 0.00842860100896392
- -4.382909691777459e-08
- -5.117992508664676e-09
- -3.546968187911892e-11
- 9.038717040457667e-14
effort:
- -19.696425917838816
- -150.0
- 93.58899787667302
- -1.2042573205483071
- 0.033000671830553864
- -1.1713731716037976e-06
---
header:
  stamp:
    sec: 218
    nanosec: 870000000
  frame_id: base_link
name:
- elbow_joint
- shoulder_lift_joint
- shoulder_pan_joint
- wrist_1_joint
- wrist_2_joint
- wrist_3_joint
position:
- 0.999999974545562
- -0.978826363613132
- -9.482349800964338e-09
- -1.0000000002277967
- -1.5000000000030482
- 6.197171180067075e-16
velocity:
- -7.86169934603731e-08
- 0.00848428192085532
- -3.819086119094886e-08
- -4.8412396385050065e-09
- -3.343537426092613e-11
- -4.380339407167311e-15
effort:
- -19.613279101620904
- -150.0
- 83.22888555756067
- -1.2009991919470862
- 0.03288414257866951
- 5.998451361895376e-08
---
header:
  stamp:
    sec: 218
    nanosec: 872000000
  frame_id: base_link
name:
- elbow_joint
- shoulder_lift_joint
- shoulder_pan_joint
- wrist_1_joint
- wrist_2_joint
- wrist_3_joint
position:
- 0.99999997443443
- -0.9788094522330204
- -9.540793564628003e-09
- -1.0000000002366938
- -1.5000000000031066
- 5.138787113914968e-16
velocity:
- -5.222185971848203e-08
- 0.008423853115949169
- -2.7942344458208035e-08
- -4.394326383783294e-09
- -2.932105773456595e-11
- -3.985483817969815e-14
effort:
- -19.6963581187349
- -150.0
- 93.56819071471746
- -1.2042069882042374
- 0.03299991333495723
- -1.1712894959055538e-06
---
header:
  stamp:
    sec: 218
    nanosec: 874000000
  frame_id: base_link
name:
- elbow_joint
- shoulder_lift_joint
- shoulder_pan_joint
- wrist_1_joint
- wrist_2_joint
- wrist_3_joint
position:
- 0.9999999743475294
- -0.9787924964412373
- -9.589622158160871e-09
- -1.0000000002451201
- -1.5000000000031612
- 4.11312914823825e-16
velocity:
- -4.186033435507608e-08
- 0.0084795323299975
- -2.3830873307692513e-08
- -4.204737284805964e-09
- -2.695370142358211e-11
- -1.2977900004651488e-13
effort:
- -19.61321470472275
- -150.0
- 83.20919007371371
- -1.2009489926369066
- 0.03288339186209276
- 6.000209982560738e-08
---
header:
  stamp:
    sec: 218
    nanosec: 876000000
  frame_id: base_link
name:
- elbow_joint
- shoulder_lift_joint
- shoulder_pan_joint
- wrist_1_joint
- wrist_2_joint
- wrist_3_joint
position:
- 0.9999999742928064
- -0.9787756122959427
- -9.625486887322853e-09
- -1.000000000252776
- -1.500000000003211
- 5.638681835886119e-16
velocity:
- -3.233044962996923e-08
- 0.008468260902853847
- -1.9811399327258547e-08
- -3.898521446936204e-09
- -2.5195662396726437e-11
- -1.4002145796998544e-14
effort:
- -19.55223239220315
- -150.0
- 82.22120472017873
- -1.1985536438508693
- 0.032797701913144
- 9.63759722558288e-07
---
header:
  stamp:
    sec: 218
    nanosec: 878000000
  frame_id: base_link
name:
- elbow_joint
- shoulder_lift_joint
- shoulder_pan_joint
- wrist_1_joint
- wrist_2_joint
- wrist_3_joint
position:
- 0.9999999742505988
- -0.978758665980458
- -9.655711756038988e-09
- -1.0000000002599052
- -1.500000000003256
- 7.001480598613499e-16
velocity:
- -2.1075007969675874e-08
- 0.008474767762191705
- -1.5100967062312703e-08
- -3.564563248330309e-09
- -2.204380775139292e-11
- 3.4464130767991596e-14
effort:
- -19.613219657136085
- -150.0
- 83.19416137932916
- -1.2009016888125192
- 0.03288269817123085
- 5.9217245985150896e-08
---
header:
  stamp:
    sec: 218
    nanosec: 880000000
  frame_id: base_link
name:
- elbow_joint
- shoulder_lift_joint
- shoulder_pan_joint
- wrist_1_joint
- wrist_2_joint
- wrist_3_joint
position:
- 0.9999999742269007
- -0.9787417913742801
- -9.677910402054987e-09
- -1.0000000002662999
- -1.5000000000032947
- 5.761750708687122e-16
velocity:
- -1.672440960026611e-08
- 0.008463489507033272
- -1.2940960979678992e-08
- -3.266679915719245e-09
- -1.9806549629575176e-11
- -1.3570812225707773e-13
effort:
- -19.552173524441407
- -150.0
- 82.20036505863357
- -1.198503713574444
- 0.03279696279120726
- 9.636796344810074e-07
---
header:
  stamp:
    sec: 218
    nanosec: 882000000
  frame_id: base_link
name:
- elbow_joint
- shoulder_lift_joint
- shoulder_pan_joint
- wrist_1_joint
- wrist_2_joint
- wrist_3_joint
position:
- 0.9999999742190404
- -0.9787249214758117
- -9.693351198267363e-09
- -1.0000000002721583
- -1.5000000000033282
- 6.48888173768625e-16
velocity:
- -6.465129265276204e-10
- 0.008403120609874583
- -6.433298490714917e-09
- -2.8473804146748535e-09
- -1.660137912556925e-11
- 5.5383323795121786e-14
effort:
- -19.69617953909227
- -150.0
- 93.47250291978052
- -1.20408100125934
- 0.032998016022482
- -1.1709880973124694e-06
---
header:
  stamp:
    sec: 218
    nanosec: 884000000
  frame_id: base_link
name:
- elbow_joint
- shoulder_lift_joint
- shoulder_pan_joint
- wrist_1_joint
- wrist_2_joint
- wrist_3_joint
position:
- 0.9999999742130538
- -0.9787080071908592
- -9.707367691964184e-09
- -1.0000000002777019
- -1.5000000000033624
- 5.87748929059995e-16
velocity:
- -1.5540022983706603e-09
- 0.008458781652668782
- -6.501539803055456e-09
- -2.7796873523918634e-09
- -1.776990013468982e-11
- -1.2804102396402062e-14
effort:
- -19.6130501845696
- -150.0
- 83.11510393815709
- -1.2008236225982152
- 0.03288150881670902
- 6.012947148212834e-08
---
header:
  stamp:
    sec: 218
    nanosec: 886000000
  frame_id: base_link
name:
- elbow_joint
- shoulder_lift_joint
- shoulder_pan_joint
- wrist_1_joint
- wrist_2_joint
- wrist_3_joint
position:
- 0.9999999742278565
- -0.9786911468113987
- -9.712831344676514e-09
- -1.0000000002826417
- -1.5000000000033917
- 5.497684595960897e-16
velocity:
- 1.0590512831282206e-08
- 0.008398363446370032
- -1.4784810925452113e-09
- -2.3865174575031164e-09
- -1.3979705414113308e-11
- -7.393613716058511e-14
effort:
- -19.696110667806924
- -150.0
- 93.4513652983128
- -1.204030764027801
- 0.03299725873661278
- -1.1708910431438193e-06
---
header:
  stamp:
    sec: 218
    nanosec: 888000000
  frame_id: base_link
name:
- elbow_joint
- shoulder_lift_joint
- shoulder_pan_joint
- wrist_1_joint
- wrist_2_joint
- wrist_3_joint
position:
- 0.9999999742404369
- -0.9786742420531813
- -9.718455614100398e-09
- -1.000000000287343
- -1.5000000000034186
- 3.199758748959339e-16
velocity:
- 7.733849729033015e-09
- 0.008454018826915448
- -2.2819987739730596e-09
- -2.3400941258800313e-09
- -1.292110862749496e-11
- -2.1560449823057604e-13
effort:
- -19.612985615804973
- -150.0
- 83.09414586130303
- -1.2007735550122884
- 0.03288076187130425
- 6.014016585266038e-08
---
header:
  stamp:
    sec: 218
    nanosec: 890000000
  frame_id: base_link
name:
- elbow_joint
- shoulder_lift_joint
- shoulder_pan_joint
- wrist_1_joint
- wrist_2_joint
- wrist_3_joint
position:
- 0.9999999742623134
- -0.9786574089340259
- -9.719609113037174e-09
- -1.0000000002914369
- -1.5000000000034401
- 2.9257927861961494e-16
velocity:
- 6.291794888910185e-09
- 0.008442741772461394
- -2.363622162143003e-09
- -2.1446472843889963e-09
- -1.120603089488359e-11
- -1.0761893763297503e-13
effort:
- -19.55202576487661
- -150.0
- 82.1075268290776
- -1.1983791084406468
- 0.0327951145952608
- 9.635081944197307e-07
---
header:
  stamp:
    sec: 218
    nanosec: 892000000
  frame_id: base_link
name:
- elbow_joint
- shoulder_lift_joint
- shoulder_pan_joint
- wrist_1_joint
- wrist_2_joint
- wrist_3_joint
position:
- 0.9999999742834451
- -0.9786405136547741
- -9.720387175244284e-09
- -1.0000000002952865
- -1.5000000000034597
- 2.0340251152040109e-16
velocity:
- 1.059947986152554e-08
- 0.008449252206241877
- -3.745134157222968e-10
- -1.923715368696167e-09
- -9.765013450624416e-12
- -5.4740934007924125e-14
effort:
- -19.61299221161898
- -150.0
- 83.07774549762671
- -1.2007264425857027
- 0.03288007645958174
- 5.931030118405844e-08
---
header:
  stamp:
    sec: 218
    nanosec: 894000000
  frame_id: base_link
name:
- elbow_joint
- shoulder_lift_joint
- shoulder_pan_joint
- wrist_1_joint
- wrist_2_joint
- wrist_3_joint
position:
- 0.9999999743095976
- -0.9786236900626097
- -9.718472192437407e-09
- -1.0000000002986669
- -1.5000000000034763
- 1.5719370650885164e-16
velocity:
- 8.543820477491249e-09
- 0.008437976776612257
- -7.956864251680573e-10
- -1.7941627269426556e-09
- -9.233950409859304e-12
- 4.440572258859743e-14
effort:
- -19.55196613952577
- -150.0
- 82.08603573932143
- -1.198329289272447
- 0.032794376081064905
- 9.634426423057764e-07
---
header:
  stamp:
    sec: 218
    nanosec: 896000000
  frame_id: base_link
name:
- elbow_joint
- shoulder_lift_joint
- shoulder_pan_joint
- wrist_1_joint
- wrist_2_joint
- wrist_3_joint
position:
- 0.9999999743349988
- -0.9786068043107028
- -9.716307521014394e-09
- -1.0000000003018525
- -1.5000000000034934
- 1.2558774950796632e-16
velocity:
- 1.2733641932549666e-08
- 0.008444489016018507
- 1.0965226845006254e-09
- -1.5919099170108846e-09
- -8.384084225487864e-12
- -3.454365699734341e-14
effort:
- -19.612927862821756
- -150.0
- 83.05648963120379
- -1.200676463177322
- 0.032879329129320525
- 5.932813596996941e-08
---
header:
  stamp:
    sec: 218
    nanosec: 898000000
  frame_id: base_link
name:
- elbow_joint
- shoulder_lift_joint
- shoulder_pan_joint
- wrist_1_joint
- wrist_2_joint
- wrist_3_joint
position:
- 0.9999999743645162
- -0.9785899902376771
- -9.711966874157905e-09
- -1.0000000003046738
- -1.5000000000035087
- 3.229876259007728e-16
velocity:
- 1.0375258766709416e-08
- 0.008433215654219447
- 4.712773793175834e-10
- -1.5144175828738643e-09
- -7.982000477246842e-12
- 5.5040444858073245e-14
effort:
- -19.551906598188513
- -150.0
- 82.06545098165921
- -1.1982794958223093
- 0.03279363954106898
- 9.633677996764927e-07
---
header:
  stamp:
    sec: 218
    nanosec: 900000000
  frame_id: base_link
name:
- elbow_joint
- shoulder_lift_joint
- shoulder_pan_joint
- wrist_1_joint
- wrist_2_joint
- wrist_3_joint
position:
- 0.999999974398412
- -0.9785731808618534
- -9.705487423960818e-09
- -1.0000000003072151
- -1.500000000003521
- 3.3483594987202026e-16
velocity:
- 1.9544529911152964e-08
- 0.008372873125459966
- 4.247931073954672e-09
- -1.2067476794848549e-09
- -6.081854637962625e-12
- -7.71556213016722e-15
effort:
- -19.695862235556437
- -150.0
- 93.33413835435802
- -1.2038550186134684
- 0.03299459348571107
- -1.1703859372474657e-06
---
header:
  stamp:
    sec: 218
    nanosec: 902000000
  frame_id: base_link
name:
- elbow_joint
- shoulder_lift_joint
- shoulder_pan_joint
- wrist_1_joint
- wrist_2_joint
- wrist_3_joint
position:
- 0.9999999744245692
- -0.9785563271108189
- -9.701547801727995e-09
- -1.000000000309729
- -1.500000000003534
- 4.988880984738434e-16
velocity:
- 1.4732593235644575e-08
- 0.00842851769608296
- 2.601003605854843e-09
- -1.2288187293879246e-09
- -6.1139661042264315e-12
- 3.206012929093949e-14
effort:
- -19.612758316606147
- -150.0
- 82.9769918856454
- -1.2005986231073977
- 0.032878152001790444
- 6.019585328893997e-08
---
header:
  stamp:
    sec: 218
    nanosec: 904000000
  frame_id: base_link
name:
- elbow_joint
- shoulder_lift_joint
- shoulder_pan_joint
- wrist_1_joint
- wrist_2_joint
- wrist_3_joint
position:
- 0.9999999744610665
- -0.9785395272341637
- -9.693240875181407e-09
- -1.0000000003118605
- -1.5000000000035443
- 4.887304251602612e-16
velocity:
- 2.069245559968569e-08
- 0.00836812568068657
- 5.110444497918518e-09
- -9.982112502305174e-10
- -4.437314231331424e-12
- -8.424576140864115e-15
effort:
- -19.69579408705276
- -150.0
- 93.31317608180619
- -1.203804982872824
- 0.032993838302535834
- -1.1702908339801034e-06
---
header:
  stamp:
    sec: 218
    nanosec: 906000000
  frame_id: base_link
name:
- elbow_joint
- shoulder_lift_joint
- shoulder_pan_joint
- wrist_1_joint
- wrist_2_joint
- wrist_3_joint
position:
- 0.9999999744897549
- -0.9785226829830381
- -9.68759325239054e-09
- -1.0000000003140053
- -1.5000000000035547
- 3.9678677411686437e-16
velocity:
- 1.6027711305724446e-08
- 0.008423768122367828
- 3.45809206096781e-09
- -1.0529161824379425e-09
- -3.817333601996431e-12
- -1.4918388789933457e-13
effort:
- -19.612694236879122
- -150.0
- 82.9560184072103
- -1.200548742525936
- 0.03287740653876795
- 6.020927646135223e-08
---
header:
  stamp:
    sec: 218
    nanosec: 908000000
  frame_id: base_link
name:
- elbow_joint
- shoulder_lift_joint
- shoulder_pan_joint
- wrist_1_joint
- wrist_2_joint
- wrist_3_joint
position:
- 0.9999999745248543
- -0.9785059103268381
- -9.679077094144278e-09
- -1.000000000315811
- -1.5000000000035623
- 3.7536564969398194e-16
velocity:
- 1.3400784889747164e-08
- 0.00841250412426584
- 2.6432595806157727e-09
- -1.0024849037915465e-09
- -3.5748695670356767e-12
- -1.3501233551288516e-13
effort:
- -19.55175639135588
- -150.0
- 81.97359781833858
- -1.198155212709853
- 0.03279179592739236
- 9.63225818563277e-07
---
header:
  stamp:
    sec: 218
    nanosec: 910000000
  frame_id: base_link
name:
- elbow_joint
- shoulder_lift_joint
- shoulder_pan_joint
- wrist_1_joint
- wrist_2_joint
- wrist_3_joint
position:
- 0.9999999745592836
- -0.9784890755045048
- -9.670671974033951e-09
- -1.0000000003176328
- -1.5000000000035727
- 5.278759240686106e-16
velocity:
- 1.7354942949757146e-08
- 0.008419027107041259
- 4.252864653974883e-09
- -9.129268171775232e-10
- -5.37523324461997e-12
- 8.780134822319874e-14
effort:
- -19.61269989834919
- -150.0
- 82.94084417309095
- -1.2005017755901832
- 0.03287671720041869
- 5.9422349844677074e-08
---
header:
  stamp:
    sec: 218
    nanosec: 912000000
  frame_id: base_link
name:
- elbow_joint
- shoulder_lift_joint
- shoulder_pan_joint
- wrist_1_joint
- wrist_2_joint
- wrist_3_joint
position:
- 0.9999999745961385
- -0.9784723123257857
- -9.660888698487064e-09
- -1.0000000003191272
- -1.500000000003577
- 4.124008574938056e-16
velocity:
- 1.424549372908146e-08
- 0.008407764460249476
- 3.250975359790978e-09
- -8.545915319803019e-10
- -3.1055557431214353e-12
- -1.1849868959343257e-13
effort:
- -19.55169570865756
- -150.0
- 81.95501833001862
- -1.1981055345346339
- 0.03279105398616939
- 9.632014002764997e-07
---
header:
  stamp:
    sec: 218
    nanosec: 914000000
  frame_id: base_link
name:
- elbow_joint
- shoulder_lift_joint
- shoulder_pan_joint
- wrist_1_joint
- wrist_2_joint
- wrist_3_joint
position:
- 0.999999974634163
- -0.9784555538297551
- -9.6503405750581e-09
- -1.000000000320475
- -1.5000000000035825
- 4.1014078385515097e-16
velocity:
- 2.14548933688552e-08
- 0.008347442823357136
- 6.264266335471655e-09
- -5.827882626355599e-10
- -1.3063100948174089e-12
- -5.91254475934555e-14
effort:
- -19.695618140490943
- -150.0
- 93.2202092519864
- -1.2036798669394642
- 0.03299195725104888
- -1.1700300827413362e-06
---
header:
  stamp:
    sec: 218
    nanosec: 916000000
  frame_id: base_link
name:
- elbow_joint
- shoulder_lift_joint
- shoulder_pan_joint
- wrist_1_joint
- wrist_2_joint
- wrist_3_joint
position:
- 0.9999999746617698
- -0.9784387509571798
- -9.64347767464022e-09
- -1.0000000003218843
- -1.500000000003589
- 3.594896230721681e-16
velocity:
- 1.5454239167891903e-08
- 0.00840308095021653
- 4.050798953431425e-09
- -6.904330454257125e-10
- -3.3231950177792235e-12
- 1.2397347688361537e-13
effort:
- -19.61253168824927
- -150.0
- 82.86462564931273
- -1.20042421096839
- 0.032875541437047094
- 6.029170414843225e-08
---
header:
  stamp:
    sec: 218
    nanosec: 918000000
  frame_id: base_link
name:
- elbow_joint
- shoulder_lift_joint
- shoulder_pan_joint
- wrist_1_joint
- wrist_2_joint
- wrist_3_joint
position:
- 0.99999997469658
- -0.9784220019305852
- -9.633483827816555e-09
- -1.000000000322963
- -1.5000000000035922
- 3.833349693426194e-16
velocity:
- 1.979048875472289e-08
- 0.008342710230728202
- 5.963308182541441e-09
- -4.5073139868351784e-10
- -1.1194907847955626e-12
- 1.2472683476316693e-13
effort:
- -19.695549980540434
- -150.0
- 93.19949662591912
- -1.203629963797344
- 0.03299120593583452
- -1.1699438519320358e-06
---
header:
  stamp:
    sec: 218
    nanosec: 920000000
  frame_id: base_link
name:
- elbow_joint
- shoulder_lift_joint
- shoulder_pan_joint
- wrist_1_joint
- wrist_2_joint
- wrist_3_joint
position:
- 0.9999999747212767
- -0.9784052085280539
- -9.627125287760092e-09
- -1.0000000003241296
- -1.5000000000035967
- 3.763309148881458e-16
velocity:
- 1.3979570053640478e-08
- 0.008398346459703464
- 3.788743137582082e-09
- -5.706460772664235e-10
- -1.8065557730317927e-12
- -1.0469766329943009e-13
effort:
- -19.612467428636094
- -150.0
- 82.84388312980117
- -1.2003744690358789
- 0.03287479676385784
- 6.031456177020598e-08
---
header:
  stamp:
    sec: 218
    nanosec: 922000000
  frame_id: base_link
name:
- elbow_joint
- shoulder_lift_joint
- shoulder_pan_joint
- wrist_1_joint
- wrist_2_joint
- wrist_3_joint
position:
- 0.9999999747499309
- -0.9783884866901655
- -9.618893817630227e-09
- -1.0000000003250114
- -1.5000000000035978
- 1.3634899817097118e-16
velocity:
- 1.0265916233417882e-08
- 0.008387090488458614
- 2.5344598024012316e-09
- -5.372585945464907e-10
- -1.2724092612881321e-12
- -5.863240665551772e-14
effort:
- -19.551547064984113
- -150.0
- 81.86030436278679
- -1.1979816757331567
- 0.03278921572841902
- 9.630500601164552e-07
---
header:
  stamp:
    sec: 218
    nanosec: 924000000
  frame_id: base_link
name:
- elbow_joint
- shoulder_lift_joint
- shoulder_pan_joint
- wrist_1_joint
- wrist_2_joint
- wrist_3_joint
position:
- 0.999999974775884
- -0.9783717026867101
- -9.611598089301032e-09
- -1.0000000003259548
- -1.5000000000036011
- 3.277744145799318e-17
velocity:
- 1.300274854280914e-08
- 0.008393620385072926
- 3.657765236097371e-09
- -4.716444096982807e-10
- -2.0450750468081758e-12
- -9.923382645118939e-14
effort:
- -19.61247310135593
- -150.0
- 82.82781198232414
- -1.2003276491738901
- 0.03287410831138118
- 5.9535328653695224e-08
---
header:
  stamp:
    sec: 218
    nanosec: 926000000
  frame_id: base_link
name:
- elbow_joint
- shoulder_lift_joint
- shoulder_pan_joint
- wrist_1_joint
- wrist_2_joint
- wrist_3_joint
position:
- 0.9999999748023675
- -0.9783549902955492
- -9.603753559361126e-09
- -1.000000000326661
- -1.5000000000036038
- 3.4694798789925164e-17
velocity:
- 9.213765325352674e-09
- 0.00838236564342052
- 2.3561005063187784e-09
- -4.472081574144731e-10
- -2.0630381084019156e-12
- 6.928160302399622e-14
effort:
- -19.551487766675002
- -150.0
- 81.83913718779799
- -1.1979321854717866
- 0.03278848066743576
- 9.629904056638798e-07
---
header:
  stamp:
    sec: 218
    nanosec: 928000000
  frame_id: base_link
name:
- elbow_joint
- shoulder_lift_joint
- shoulder_pan_joint
- wrist_1_joint
- wrist_2_joint
- wrist_3_joint
position:
- 0.9999999748310076
- -0.9783382825665199
- -9.594946550053748e-09
- -1.0000000003272858
- -1.5000000000036076
- 3.29286623682479e-16
velocity:
- 1.663291431322489e-08
- 0.008322069872108056
- 5.328982686115397e-09
- -2.340362052918009e-10
- -6.112176736960961e-13
- 1.4761119843803572e-13
effort:
- -19.69537203812048
- -150.0
- 93.10548341103936
- -1.203505133659105
- 0.03298932156891401
- -1.16961968143729e-06
---
header:
  stamp:
    sec: 218
    nanosec: 930000000
  frame_id: base_link
name:
- elbow_joint
- shoulder_lift_joint
- shoulder_pan_joint
- wrist_1_joint
- wrist_2_joint
- wrist_3_joint
position:
- 0.9999999748504581
- -0.978321530453993
- -9.589521865587147e-09
- -1.000000000328026
- -1.5000000000036091
- 2.3395803924647377e-16
velocity:
- 1.1335181758498347e-08
- 0.008377703261184154
- 3.3114274634003793e-09
- -3.593145138250462e-10
- -1.0339611111742641e-12
- 5.879622960378028e-14
effort:
- -19.61230588634763
- -150.0
- 82.74995121678687
- -1.2002503287172375
- 0.0328729382996793
- 6.038456183551309e-08
---
header:
  stamp:
    sec: 218
    nanosec: 932000000
  frame_id: base_link
name:
- elbow_joint
- shoulder_lift_joint
- shoulder_pan_joint
- wrist_1_joint
- wrist_2_joint
- wrist_3_joint
position:
- 0.9999999748776216
- -0.9783048321516393
- -9.58095733649276e-09
- -1.0000000003285205
- -1.5000000000036098
- 5.0148149194795517e-17
velocity:
- 1.5846041591729976e-08
- 0.008317358677708988
- 5.18778197722107e-09
- -1.7144923970661453e-10
- 6.811391728422933e-14
- -2.7778669121902855e-14
effort:
- -19.69530393207895
- -150.0
- 93.0848798076607
- -1.20345537298832
- 0.032988572565738
- -1.169534173553618e-06
---
header:
  stamp:
    sec: 218
    nanosec: 934000000
  frame_id: base_link
name:
- elbow_joint
- shoulder_lift_joint
- shoulder_pan_joint
- wrist_1_joint
- wrist_2_joint
- wrist_3_joint
position:
- 0.9999999748957561
- -0.9782880894665686
- -9.575740893853152e-09
- -1.0000000003291398
- -1.5000000000036136
- 2.5907992515480954e-16
velocity:
- 1.0673128767943463e-08
- 0.008372989983766092
- 3.205235874241194e-09
- -2.986960514811312e-10
- -2.1270632824532676e-12
- 1.703490321892931e-13
effort:
- -19.61224191442045
- -150.0
- 82.72932599088452
- -1.2002007375085937
- 0.03287219654245799
- 6.040185124380585e-08
---
header:
  stamp:
    sec: 218
    nanosec: 936000000
  frame_id: base_link
name:
- elbow_joint
- shoulder_lift_joint
- shoulder_pan_joint
- wrist_1_joint
- wrist_2_joint
- wrist_3_joint
position:
- 0.9999999749216867
- -0.9782714005838545
- -9.567386656627535e-09
- -1.0000000003295302
- -1.5000000000036142
- 2.988048217041353e-16
velocity:
- 1.5199220515862977e-08
- 0.008312651319793094
- 5.069174576844207e-09
- -1.216244030943954e-10
- 2.4711222651463416e-13
- 3.008346610017254e-14
effort:
- -19.695235017951426
- -150.0
- 93.064239910331
- -1.2034056052177071
- 0.03298782327072352
- -1.1694391129139479e-06
---
header:
  stamp:
    sec: 218
    nanosec: 938000000
  frame_id: base_link
name:
- elbow_joint
- shoulder_lift_joint
- shoulder_pan_joint
- wrist_1_joint
- wrist_2_joint
- wrist_3_joint
position:
- 0.9999999749387652
- -0.9782546673185322
- -9.56233437102073e-09
- -1.0000000003300504
- -1.5000000000036153
- 2.149626545542019e-16
velocity:
- 1.0142961611239731e-08
- 0.008368280569620795
- 3.122087526875872e-09
- -2.4893599288584693e-10
- 7.529367754277594e-13
- -1.2768632722329198e-13
effort:
- -19.612177929732077
- -150.0
- 82.70870824344749
- -1.2001511716622482
- 0.03287145521885429
- 6.041907183450094e-08
---
header:
  stamp:
    sec: 218
    nanosec: 940000000
  frame_id: base_link
name:
- elbow_joint
- shoulder_lift_joint
- shoulder_pan_joint
- wrist_1_joint
- wrist_2_joint
- wrist_3_joint
position:
- 0.9999999749603056
- -0.9782380055726634
- -9.555405606290798e-09
- -1.0000000003303784
- -1.5000000000036162
- 2.444138139473809e-16
velocity:
- 6.89556151067805e-09
- 0.008357038280544843
- 1.9702753489055785e-09
- -2.456346811336666e-10
- -1.688960603318801e-12
- 4.205240756310902e-15
effort:
- -19.551279392013612
- -150.0
- 81.72322941538616
- -1.1977592887635278
- 0.03278591305754242
- 9.62792106076118e-07
---
header:
  stamp:
    sec: 218
    nanosec: 942000000
  frame_id: base_link
name:
- elbow_joint
- shoulder_lift_joint
- shoulder_pan_joint
- wrist_1_joint
- wrist_2_joint
- wrist_3_joint
position:
- 0.9999999749800851
- -0.978221281656273
- -9.549163807575106e-09
- -1.0000000003307925
- -1.5000000000036195
- 2.4524751120791363e-16
velocity:
- 9.925696988280497e-09
- 0.008363579614985203
- 3.134355197912872e-09
- -2.0709333746027174e-10
- -1.614080397116524e-12
- 1.3776035433926692e-14
effort:
- -19.612183546574805
- -150.0
- 82.69276487606786
- -1.2001045129683159
- 0.0328707702283881
- 5.963572736502698e-08
---
header:
  stamp:
    sec: 218
    nanosec: 944000000
  frame_id: base_link
name:
- elbow_joint
- shoulder_lift_joint
- shoulder_pan_joint
- wrist_1_joint
- wrist_2_joint
- wrist_3_joint
position:
- 0.9999999750007882
- -0.9782046293067751
- -9.542384502924253e-09
- -1.0000000003310532
- -1.5000000000036184
- -1.6427142448147107e-16
velocity:
- 6.506115044283001e-09
- 0.0083523386037942
- 1.90880798753984e-09
- -2.0961439561092282e-10
- 2.2939549565448303e-13
- -1.518221854658608e-13
effort:
- -19.551220252079467
- -150.0
- 81.70242774012911
- -1.1977099720484783
- 0.032785180409711345
- 9.627327603809392e-07
---
header:
  stamp:
    sec: 218
    nanosec: 946000000
  frame_id: base_link
name:
- elbow_joint
- shoulder_lift_joint
- shoulder_pan_joint
- wrist_1_joint
- wrist_2_joint
- wrist_3_joint
position:
- 0.9999999750241761
- -0.9781879815945248
- -9.534551532123625e-09
- -1.0000000003312737
- -1.500000000003618
- -1.088477141554242e-16
velocity:
- 1.388405003813209e-08
- 0.00829207421982978
- 4.779905164384313e-09
- -4.65855661338499e-11
- 7.475747451635151e-13
- 1.0340486062895837e-13
effort:
- -19.69505806912202
- -150.0
- 92.97062264049553
- -1.2032812284194574
- 0.032985946953343656
- -1.1691297710539474e-06
---
header:
  stamp:
    sec: 218
    nanosec: 948000000
  frame_id: base_link
name:
- elbow_joint
- shoulder_lift_joint
- shoulder_pan_joint
- wrist_1_joint
- wrist_2_joint
- wrist_3_joint
position:
- 0.9999999750392767
- -0.9781712894920502
- -9.529833548375368e-09
- -1.0000000003316234
- -1.5000000000036198
- -5.129913020163162e-17
velocity:
- 9.135846594857111e-09
- 0.008347701230887964
- 2.948447601520965e-09
- -1.6332184370648935e-10
- -9.23118352591512e-13
- 5.0066938442339115e-14
effort:
- -19.61201599940223
- -150.0
- 82.61506891228305
- -1.2000274330699188
- 0.03286960227738575
- 6.049789896136378e-08
---
header:
  stamp:
    sec: 218
    nanosec: 950000000
  frame_id: base_link
name:
- elbow_joint
- shoulder_lift_joint
- shoulder_pan_joint
- wrist_1_joint
- wrist_2_joint
- wrist_3_joint
position:
- 0.9999999750621381
- -0.978154651156489
- -9.522070726864547e-09
- -1.0000000003317882
- -1.5000000000036195
- 5.5295435096305904e-18
velocity:
- 1.3571286063690513e-08
- 0.008287387868338126
- 4.728615923084087e-09
- -1.8442336172748083e-11
- 4.689824917303298e-13
- -4.5508085147472066e-14
effort:
- -19.69499046424732
- -150.0
- 92.95030672239572
- -1.2032316538345207
- 0.03298520124901038
- -1.1690514346378943e-06
---
header:
  stamp:
    sec: 218
    nanosec: 952000000
  frame_id: base_link
name:
- elbow_joint
- shoulder_lift_joint
- shoulder_pan_joint
- wrist_1_joint
- wrist_2_joint
- wrist_3_joint
position:
- 0.9999999750767951
- -0.9781379684311711
- -9.517406655866424e-09
- -1.0000000003320875
- -1.5000000000036198
- -2.2120223003738142e-16
velocity:
- 8.91444251922835e-09
- 0.008343013124469308
- 2.9216450261708438e-09
- -1.3758263869541668e-10
- 2.1788213594442496e-13
- -1.2607097440650583e-13
effort:
- -19.611952094146396
- -150.0
- 82.5947212290063
- -1.199978010699355
- 0.032868863089190764
- 6.05152039576139e-08
---
header:
  stamp:
    sec: 218
    nanosec: 954000000
  frame_id: base_link
name:
- elbow_joint
- shoulder_lift_joint
- shoulder_pan_joint
- wrist_1_joint
- wrist_2_joint
- wrist_3_joint
position:
- 0.9999999750959139
- -0.9781213571894621
- -9.510930789913786e-09
- -1.0000000003322318
- -1.50000000000362
- -2.8419320175887275e-17
velocity:
- 5.831171890832709e-09
- 0.008331781803759604
- 1.8042722218624546e-09
- -1.4711653087157855e-10
- -6.651615022668089e-13
- 7.551197080818417e-14
effort:
- -19.551070600012768
- -150.0
- 81.6084294619235
- -1.1975868447561162
- 0.03278335050966247
- 9.626100959445542e-07
---
header:
  stamp:
    sec: 218
    nanosec: 956000000
  frame_id: base_link
name:
- elbow_joint
- shoulder_lift_joint
- shoulder_pan_joint
- wrist_1_joint
- wrist_2_joint
- wrist_3_joint
position:
- 0.9999999751137167
- -0.978104683770458
- -9.504998606339995e-09
- -1.0000000003324523
- -1.5000000000036187
- -4.6413570704559315e-18
velocity:
- 8.929859173292809e-09
- 0.008338333486772521
- 2.976982677082088e-09
- -1.1079524645830896e-10
- 5.717535819793618e-13
- -7.809291407978591e-15
effort:
- -19.611957788214095
- -150.0
- 82.57846491410298
- -1.1999314946497721
- 0.03286818043291313
- 5.9730789474552e-08
---
header:
  stamp:
    sec: 218
    nanosec: 958000000
  frame_id: base_link
name:
- elbow_joint
- shoulder_lift_joint
- shoulder_pan_joint
- wrist_1_joint
- wrist_2_joint
- wrist_3_joint
position:
- 0.9999999751324288
- -0.9780880818829907
- -9.49859290413066e-09
- -1.000000000332562
- -1.5000000000036184
- 2.2935305314916746e-16
velocity:
- 5.66414227326506e-09
- 0.008327103353324239
- 1.7818845381416953e-09
- -1.300684382519058e-10
- 6.083310938320707e-13
- 1.5586880744433707e-13
effort:
- -19.551011160547787
- -150.0
- 81.5880154643102
- -1.19753765642923
- 0.03278261934361253
- 9.62557109835153e-07
---
header:
  stamp:
    sec: 218
    nanosec: 960000000
  frame_id: base_link
name:
- elbow_joint
- shoulder_lift_joint
- shoulder_pan_joint
- wrist_1_joint
- wrist_2_joint
- wrist_3_joint
position:
- 0.9999999751539408
- -0.978071484611621
- -9.491119309453945e-09
- -1.0000000003326337
- -1.5000000000036176
- 2.1931306998140857e-16
velocity:
- 1.2790891464053988e-08
- 0.008266863307496363
- 4.53512004382553e-09
- 1.813793467633426e-11
- 8.038014698286133e-13
- 7.435209132405918e-14
effort:
- -19.694815385652163
- -150.0
- 92.85727733279667
- -1.2031077067830156
- 0.03298333097539678
- -1.1687576323636581e-06
---
header:
  stamp:
    sec: 218
    nanosec: 962000000
  frame_id: base_link
name:
- elbow_joint
- shoulder_lift_joint
- shoulder_pan_joint
- wrist_1_joint
- wrist_2_joint
- wrist_3_joint
position:
- 0.9999999751677109
- -0.9780548429422257
- -9.486581663146634e-09
- -1.0000000003328375
- -1.500000000003617
- 3.360735124418037e-16
velocity:
- 8.445268246878856e-09
- 0.00832248736494785
- 2.855568254512414e-09
- -8.216260443815078e-11
- 4.579184254005497e-13
- 6.85832684046983e-14
effort:
- -19.611790169404692
- -150.0
- 82.50065317948393
- -1.199854623584271
- 0.03286701531093686
- 6.05967237960194e-08
---
header:
  stamp:
    sec: 218
    nanosec: 964000000
  frame_id: base_link
name:
- elbow_joint
- shoulder_lift_joint
- shoulder_pan_joint
- wrist_1_joint
- wrist_2_joint
- wrist_3_joint
position:
- 0.9999999751890087
- -0.9780382550051427
- -9.479123166791383e-09
- -1.0000000003328786
- -1.5000000000036164
- 4.69751086660142e-16
velocity:
- 1.2631085859540758e-08
- 0.008262198075469756
- 4.506701215553979e-09
- 3.1270540491864715e-11
- 1.2387079209585927e-12
- 7.137248691363451e-14
effort:
- -19.69474810310887
- -150.0
- 92.83706299163423
- -1.2030582855963552
- 0.03298258733210715
- -1.1686804817304445e-06
---
header:
  stamp:
    sec: 218
    nanosec: 966000000
  frame_id: base_link
name:
- elbow_joint
- shoulder_lift_joint
- shoulder_pan_joint
- wrist_1_joint
- wrist_2_joint
- wrist_3_joint
position:
- 0.9999999752026272
- -0.9780216226705215
- -9.474587140813592e-09
- -1.0000000003330565
- -1.5000000000036158
- 2.720572288482661e-16
velocity:
- 8.36757981133307e-09
- 0.008317820466547575
- 2.85551398477267e-09
- -6.745270761756607e-11
- -1.1577371006321613e-13
- -1.2789644560431968e-13
effort:
- -19.61172633989798
- -150.0
- 82.48028623736064
- -1.1998053445324406
- 0.03286627820948796
- 6.061433960596805e-08
---
header:
  stamp:
    sec: 218
    nanosec: 968000000
  frame_id: base_link
name:
- elbow_joint
- shoulder_lift_joint
- shoulder_pan_joint
- wrist_1_joint
- wrist_2_joint
- wrist_3_joint
position:
- 0.9999999752204771
- -0.9780050617847549
- -9.468373418090603e-09
- -1.0000000003331169
- -1.5000000000036147
- 1.87613654753255e-16
velocity:
- 5.391823761774495e-09
- 0.008306599748254812
- 1.7496612526868294e-09
- -1.0157979017937253e-10
- -1.954330794418091e-13
- -9.158461749397828e-14
effort:
- -19.550861347636463
- -150.0
- 81.49477641323053
- -1.1974148695772573
- 0.032780795257803
- 9.624344188048715e-07
---
header:
  stamp:
    sec: 218
    nanosec: 970000000
  frame_id: base_link
name:
- elbow_joint
- shoulder_lift_joint
- shoulder_pan_joint
- wrist_1_joint
- wrist_2_joint
- wrist_3_joint
position:
- 0.9999999752374338
- -0.9779884387140959
- -9.462536522262171e-09
- -1.0000000003332254
- -1.5000000000036136
- 2.530941533807343e-16
velocity:
- 8.504923255242547e-09
- 0.008313161887949653
- 2.9286697613480767e-09
- -5.495521483082737e-11
- 1.7513508004940448e-13
- 7.572116761736525e-14
effort:
- -19.611732395526353
- -150.0
- 82.46469900840701
- -1.1997589809512215
- 0.03286559808862401
- 5.982564398785486e-08
---
header:
  stamp:
    sec: 218
    nanosec: 972000000
  frame_id: base_link
name:
- elbow_joint
- shoulder_lift_joint
- shoulder_pan_joint
- wrist_1_joint
- wrist_2_joint
- wrist_3_joint
position:
- 0.9999999752550787
- -0.9779718871403579
- -9.456360853269703e-09
- -1.000000000333271
- -1.5000000000036133
- 2.9960246924243284e-16
velocity:
- 5.331201887934234e-09
- 0.008301942411235677
- 1.745577786049085e-09
- -9.414880770071583e-11
- -7.410166230625848e-13
- 7.864932663470547e-14
effort:
- -19.550801995392888
- -150.0
- 81.47460410671275
- -1.1973658241837963
- 0.03278006630527233
- 9.62380959452245e-07
---
header:
  stamp:
    sec: 218
    nanosec: 974000000
  frame_id: base_link
name:
- elbow_joint
- shoulder_lift_joint
- shoulder_pan_joint
- wrist_1_joint
- wrist_2_joint
- wrist_3_joint
position:
- 0.9999999752719275
- -0.9779552733815989
- -9.450530627031064e-09
- -1.000000000333365
- -1.5000000000036124
- 3.547936182024816e-16
velocity:
- 8.451058070360618e-09
- 0.008308506408519142
- 2.9253608827863042e-09
- -4.744437877507793e-11
- -3.2199937161081493e-14
- 2.82053026767759e-14
effort:
- -19.611668668175497
- -150.0
- 82.44449243451696
- -1.1997097822386917
- 0.03286486213918658
- 5.984291107273061e-08
---
header:
  stamp:
    sec: 218
    nanosec: 976000000
  frame_id: base_link
name:
- elbow_joint
- shoulder_lift_joint
- shoulder_pan_joint
- wrist_1_joint
- wrist_2_joint
- wrist_3_joint
position:
- 0.99999997528937
- -0.9779387311122976
- -9.444402505316342e-09
- -1.0000000003334013
- -1.5000000000036124
- 5.213569416661071e-16
velocity:
- 5.287805146872437e-09
- 0.008297288839820416
- 1.7437821234721207e-09
- -8.852547368114541e-11
- -2.596759612893962e-13
- 9.06145818102555e-14
effort:
- -19.55074270493366
- -150.0
- 81.45444919355982
- -1.1973168053410221
- 0.03277933830784851
- 9.623239255049845e-07
---
header:
  stamp:
    sec: 218
    nanosec: 978000000
  frame_id: base_link
name:
- elbow_joint
- shoulder_lift_joint
- shoulder_pan_joint
- wrist_1_joint
- wrist_2_joint
- wrist_3_joint
position:
- 0.9999999753096778
- -0.9779221934341559
- -9.43719578865389e-09
- -1.0000000003333966
- -1.500000000003612
- 5.593896154646175e-16
velocity:
- 1.1948022099472766e-08
- 0.008237078453386202
- 4.302480949855761e-09
- 4.474742874415599e-11
- 2.0590040089585315e-13
- -4.059372196024702e-14
effort:
- -19.694505157049296
- -150.0
- 92.72392190270612
- -1.202885362472484
- 0.032979978425072914
- -1.1682921437271599e-06
---
header:
  stamp:
    sec: 218
    nanosec: 980000000
  frame_id: base_link
name:
- elbow_joint
- shoulder_lift_joint
- shoulder_pan_joint
- wrist_1_joint
- wrist_2_joint
- wrist_3_joint
position:
- 0.999999975322916
- -0.9779056113501945
- -9.43268831305539e-09
- -1.0000000003335272
- -1.5000000000036111
- 4.3868479129061143e-16
velocity:
- 8.159152799572245e-09
- 0.008292697663697316
- 2.8337600111501965e-09
- -4.288162503579031e-11
- 8.400970891164761e-13
- -6.396299505675995e-14
effort:
- -19.611501341648875
- -150.0
- 82.36754858917027
- -1.199633172659424
- 0.03286370044536596
- 6.070981745041415e-08
---
header:
  stamp:
    sec: 218
    nanosec: 982000000
  frame_id: base_link
name:
- elbow_joint
- shoulder_lift_joint
- shoulder_pan_joint
- wrist_1_joint
- wrist_2_joint
- wrist_3_joint
position:
- 0.9999999753431584
- -0.9778890829566906
- -9.425486184163422e-09
- -1.0000000003335163
- -1.50000000000361
- 3.471141057945496e-16
velocity:
- 1.183873573999683e-08
- 0.008232438128741859
- 4.271396804832184e-09
- 4.7125479923524824e-11
- 2.0118975929683813e-13
- -6.594025455872177e-14
effort:
- -19.694437835966234
- -150.0
- 92.70370271680942
- -1.2028361075737029
- 0.03297923645050688
- -1.1682093316215762e-06
---
header:
  stamp:
    sec: 218
    nanosec: 984000000
  frame_id: base_link
name:
- elbow_joint
- shoulder_lift_joint
- shoulder_pan_joint
- wrist_1_joint
- wrist_2_joint
- wrist_3_joint
position:
- 0.9999999753564198
- -0.9778725101579132
- -9.420949306885915e-09
- -1.0000000003336376
- -1.5000000000036093
- 4.577052210530677e-16
velocity:
- 8.170765777512634e-09
- 0.008288055525439356
- 2.8489555981264097e-09
- -3.797733677014803e-11
- 2.531664114457932e-13
- 1.1996409724976398e-13
effort:
- -19.611437723061194
- -150.0
- 82.34791538169091
- -1.1995840672877067
- 0.03286296591502272
- 6.072633114321892e-08
---
header:
  stamp:
    sec: 218
    nanosec: 986000000
  frame_id: base_link
name:
- elbow_joint
- shoulder_lift_joint
- shoulder_pan_joint
- wrist_1_joint
- wrist_2_joint
- wrist_3_joint
position:
- 0.9999999753733444
- -0.9778560087651023
- -9.414986226496852e-09
- -1.0000000003336735
- -1.5000000000036093
- 5.880081617994363e-16
velocity:
- 5.258822741854852e-09
- 0.008276847591518343
- 1.759791314190004e-09
- -7.739400380334452e-11
- -3.104461132608094e-13
- 8.131006718620215e-14
effort:
- -19.5505937050191
- -150.0
- 81.36259516222816
- -1.1971944566594912
- 0.032777523619280345
- 9.621801844736979e-07
---
header:
  stamp:
    sec: 218
    nanosec: 988000000
  frame_id: base_link
name:
- elbow_joint
- shoulder_lift_joint
- shoulder_pan_joint
- wrist_1_joint
- wrist_2_joint
- wrist_3_joint
position:
- 0.9999999753895441
- -0.9778394451821057
- -9.409298558304528e-09
- -1.0000000003337288
- -1.5000000000036073
- 4.537903838486572e-16
velocity:
- 8.123273349119886e-09
- 0.00828342109318075
- 2.853671913138553e-09
- -2.7318126385143804e-11
- 1.6786780299149484e-12
- -2.925687036386959e-14
effort:
- -19.611443742489747
- -150.0
- 82.33258335697897
- -1.199537866267539
- 0.03286228851775937
- 5.993733265934461e-08
---
header:
  stamp:
    sec: 218
    nanosec: 990000000
  frame_id: base_link
name:
- elbow_joint
- shoulder_lift_joint
- shoulder_pan_joint
- wrist_1_joint
- wrist_2_joint
- wrist_3_joint
position:
- 0.99999997540499
- -0.9778229530545792
- -9.403818821169556e-09
- -1.0000000003337512
- -1.5000000000036056
- 4.120619358946868e-16
velocity:
- 4.598720914489318e-09
- 0.00827221335649165
- 1.5555781174899502e-09
- -6.441148656111118e-11
- 1.0017247448201871e-13
- -6.59287078055848e-15
effort:
- -19.550535086152628
- -150.0
- 81.34193248688588
- -1.1971456010134227
- 0.0327767996110304
- 9.621087325713864e-07
---
header:
  stamp:
    sec: 218
    nanosec: 992000000
  frame_id: base_link
name:
- elbow_joint
- shoulder_lift_joint
- shoulder_pan_joint
- wrist_1_joint
- wrist_2_joint
- wrist_3_joint
position:
- 0.999999975422598
- -0.9778064654992334
- -9.397495386277746e-09
- -1.0000000003337284
- -1.5000000000036045
- 4.74812359241739e-16
velocity:
- 1.0308341532802578e-08
- 0.008212027215655997
- 3.731695795037779e-09
- 3.591919849662423e-11
- 7.369079305097337e-13
- 6.454607898512266e-14
effort:
- -19.69426197545947
- -150.0
- 92.610228070082
- -1.2027129046810972
- 0.032977371964111574
- -1.1678746171753771e-06
---
header:
  stamp:
    sec: 218
    nanosec: 994000000
  frame_id: base_link
name:
- elbow_joint
- shoulder_lift_joint
- shoulder_pan_joint
- wrist_1_joint
- wrist_2_joint
- wrist_3_joint
position:
- 0.9999999754331491
- -0.9777899335337139
- -9.393787537396518e-09
- -1.00000000033379
- -1.500000000003605
- 5.721939347014541e-16
velocity:
- 6.798106272354332e-09
- 0.008267640956340264
- 2.4258623445520128e-09
- -9.196575792569384e-12
- 6.452824385938527e-14
- -2.7016962885623164e-14
effort:
- -19.61127674090514
- -150.0
- 82.25449463124082
- -1.1994614801005201
- 0.03286112961180164
- 6.080496983208062e-08
---
