header:
  stamp:
    sec: 54
    nanosec: 167000000
  frame_id: base_link
name:
- elbow_joint
- shoulder_lift_joint
- shoulder_pan_joint
- wrist_1_joint
- wrist_2_joint
- wrist_3_joint
position:
- 0.32441555495601127
- -1.385107190300307
- -8.461307032209373e-15
- -1.3850831336727942
- -0.4866233324334286
- 1.482906303036039e-14
velocity:
- 0.32876546548942415
- 0.18873279448501667
- 4.038583703569465e-13
- 0.18739631532490925
- -0.4931481982351433
- -6.865966128977163e-13
effort:
- -10.353674457442397
- -18.068308325451984
- 0.041250915181771784
- -1.3601234584765338
- 0.31678824179751736
- -4.1892536389265135e-05
---
header:
  stamp:
    sec: 54
    nanosec: 170000000
  frame_id: base_link
name:
- elbow_joint
- shoulder_lift_joint
- shoulder_pan_joint
- wrist_1_joint
- wrist_2_joint
- wrist_3_joint
position:
- 0.3250739994605549
- -1.3847294712702354
- -7.426733997328959e-15
- -1.384707820305216
- -0.4876109991902469
- 1.2920735367801729e-14
velocity:
- 0.3292222522741811
- 0.18885951503664156
- 3.440871719495586e-13
- 0.18765668379299455
- -0.4938333784120209
- -5.750330767106959e-13
effort:
- -10.37244314503811
- -18.102819643749413
- 0.041410856204811886
- -1.362202101839678
- 0.3171572592151624
- -4.207974226515019e-05
---
header:
  stamp:
    sec: 54
    nanosec: 172000000
  frame_id: base_link
name:
- elbow_joint
- shoulder_lift_joint
- shoulder_pan_joint
- wrist_1_joint
- wrist_2_joint
- wrist_3_joint
position:
- 0.3257665995144141
- -1.384332524143254
- 1.1646787410790507e-14
- -1.3843130382747613
- -0.4886498992711221
- -2.0722755403260815e-14
velocity:
- 0.3463000270471068
- 0.19847356353310316
- 2.841325265345862e-13
- 0.19739101541413262
- -0.519450040571169
- -4.616307336391401e-13
effort:
- -10.39160834435521
- -18.148736010035243
- 0.04586311455593152
- -1.3634320795395247
- 0.31748359221047767
- -4.6636391336616526e-05
---
header:
  stamp:
    sec: 54
    nanosec: 174000000
  frame_id: base_link
name:
- elbow_joint
- shoulder_lift_joint
- shoulder_pan_joint
- wrist_1_joint
- wrist_2_joint
- wrist_3_joint
position:
- 0.32645660622980854
- -1.383937271728879
- 8.774905858777051e-15
- -1.3839197344469478
- -0.4896849093441986
- -1.569513819182141e-14
velocity:
- 0.3450033576875891
- 0.1976262071840664
- -6.687398031168801e-13
- 0.196651913891553
- -0.5175050365274891
- 1.219621625914158e-12
effort:
- -10.411294057167199
- -18.183819793085224
- 0.04558014639825759
- -1.365701267140667
- 0.31787309510239825
- -4.637220222693975e-05
---
header:
  stamp:
    sec: 54
    nanosec: 176000000
  frame_id: base_link
name:
- elbow_joint
- shoulder_lift_joint
- shoulder_pan_joint
- wrist_1_joint
- wrist_2_joint
- wrist_3_joint
position:
- 0.32714427894032844
- -1.3835435445559419
- 6.349990555498566e-15
- -1.3835277610019185
- -0.49071641840996544
- -1.1432485461030449e-14
velocity:
- 0.34383635525130823
- 0.196863586465342
- -5.244077741495268e-13
- 0.1959867225010306
- -0.515754532873744
- 9.671985434778207e-13
effort:
- -10.430889150780024
- -18.218833473547086
- 0.045332878087071295
- -1.3679504867693373
- 0.3182590189334284
- -4.614288100141365e-05
---
header:
  stamp:
    sec: 54
    nanosec: 178000000
  frame_id: base_link
name:
- elbow_joint
- shoulder_lift_joint
- shoulder_pan_joint
- wrist_1_joint
- wrist_2_joint
- wrist_3_joint
position:
- 0.3278298510464615
- -1.383151190100299
- 4.31085737027648e-15
- -1.3831369849013948
- -0.49174477656915383
- -7.831844842035661e-15
velocity:
- 0.34278605305875376
- 0.19617722781851946
- -4.024974797900427e-13
- 0.19538805024972503
- -0.5141790795854815
- 7.532724444203609e-13
effort:
- -10.450401730191802
- -18.25378304467106
- 0.04511768451348702
- -1.3701814306800897
- 0.3186415867331723
- -4.594495495664288e-05
---
header:
  stamp:
    sec: 54
    nanosec: 180000000
  frame_id: base_link
name:
- elbow_joint
- shoulder_lift_joint
- shoulder_pan_joint
- wrist_1_joint
- wrist_2_joint
- wrist_3_joint
position:
- 0.3285135326086466
- -1.382760071090221
- 2.604146208989746e-15
- -1.3827472864109254
- -0.49277029891242174
- -4.802969080722829e-15
velocity:
- 0.34184078108554256
- 0.1955595050364108
- -2.99930653230307e-13
- 0.19484924522369476
- -0.5127611716261398
- 5.726044638443284e-13
effort:
- -10.46983869428359
- -18.288673148046826
- 0.0449312202678992
- -1.3723955699241899
- 0.31902098522143724
- -4.577516694836854e-05
---
header:
  stamp:
    sec: 54
    nanosec: 182000000
  frame_id: base_link
name:
- elbow_joint
- shoulder_lift_joint
- shoulder_pan_joint
- wrist_1_joint
- wrist_2_joint
- wrist_3_joint
position:
- 0.3298426280802096
- -1.3820000575829061
- -1.7790120795352473e-14
- -1.3819897019918637
- -0.49476394211966657
- 3.173490781000702e-14
velocity:
- 0.323557699344898
- 0.18500319907906657
- -1.3453821390285725e-13
- 0.1844278886296021
- -0.48533654901592066
- 2.761679773755077e-13
effort:
- -10.508118732433006
- -18.346958324947025
- 0.04037028561490637
- -1.3776207627766506
- 0.31981223788085694
- -4.1159121991149594e-05
---
header:
  stamp:
    sec: 54
    nanosec: 182000000
  frame_id: base_link
name:
- elbow_joint
- shoulder_lift_joint
- shoulder_pan_joint
- wrist_1_joint
- wrist_2_joint
- wrist_3_joint
position:
- 0.33045836527255684
- -1.381648051824494
- -3.292554669405712e-14
- -1.3816387317920247
- -0.4956875479081138
- 5.894448961991308e-14
velocity:
- 0.3078685960651127
- 0.1760028791668154
- 8.213625092567955e-13
- 0.17548509974775528
- -0.46180289410074893
- -1.4391265956703592e-12
effort:
- -10.526066032608021
- -18.370230149224103
- 0.03660165069859248
- -1.3804063333142649
- 0.32020005059747797
- -3.7328403670753595e-05
---
header:
  stamp:
    sec: 54
    nanosec: 187000000
  frame_id: base_link
name:
- elbow_joint
- shoulder_lift_joint
- shoulder_pan_joint
- wrist_1_joint
- wrist_2_joint
- wrist_3_joint
position:
- 0.3310125287458775
- -1.3813312046121282
- -6.249470197807206e-14
- -1.3813228586118398
- -0.4965187931179519
- 1.1224301493535031e-13
velocity:
- 0.2770817364483507
- 0.15840259124642384
- 1.544233491079794e-12
- 0.15793658975680924
- -0.4156226046789442
- -2.789810049641517e-12
effort:
- -10.613771649622358
- -18.56271302007575
- 0.05495187919711954
- -1.3901105629806798
- 0.32239914377374884
- -3.98111555831878e-05
---
header:
  stamp:
    sec: 54
    nanosec: 188000000
  frame_id: base_link
name:
- elbow_joint
- shoulder_lift_joint
- shoulder_pan_joint
- wrist_1_joint
- wrist_2_joint
- wrist_3_joint
position:
- 0.3322768149508752
- -1.3806218289185472
- -3.220889556325724e-14
- -1.3806022154753805
- -0.4984152224255906
- 5.871063501756362e-14
velocity:
- 0.29943620656290965
- 0.171863803828718
- -2.0934694949792387e-12
- 0.1706786377621327
- -0.4491543098306405
- 1.9287765828934766e-12
effort:
- -13.482462103944078
- -25.7952383044592
- 1.0678341870890429
- -1.6484397814670995
- 0.3947525862386622
- -0.0004248644607244463
---
header:
  stamp:
    sec: 54
    nanosec: 192000000
  frame_id: base_link
name:
- elbow_joint
- shoulder_lift_joint
- shoulder_pan_joint
- wrist_1_joint
- wrist_2_joint
- wrist_3_joint
position:
- 0.3328491334561248
- -1.3802936460265824
- -4.330263694017911e-14
- -1.3802759939272398
- -0.4992737001834093
- 7.864418288545331e-14
velocity:
- 0.28615925253220437
- 0.1640914459489645
- 1.551710582942123e-12
- 0.16311077392422793
- -0.42923887880482275
- -2.8070532009927263e-12
effort:
- -10.594055434539184
- -18.481939862226785
- 0.03188057473918287
- -1.3889641260558576
- 0.3215476858979468
- -3.249262658360864e-05
---
header:
  stamp:
    sec: 54
    nanosec: 192000000
  frame_id: base_link
name:
- elbow_joint
- shoulder_lift_joint
- shoulder_pan_joint
- wrist_1_joint
- wrist_2_joint
- wrist_3_joint
position:
- 0.3334975534434754
- -1.3799222814240693
- 6.919570519735604e-16
- -1.3799063945350316
- -0.500246330164646
- -1.460816137436396e-15
velocity:
- 0.3242099939364829
- 0.1856823013507699
- 2.0899081076830583e-12
- 0.18479969651709927
- -0.48631499091392716
- -3.7670352948104835e-12
effort:
- -10.611118708444438
- -18.53566757374117
- 0.04094363786347785
- -1.388972290660963
- 0.3217662373291176
- -4.176440402596396e-05
---
header:
  stamp:
    sec: 54
    nanosec: 192000000
  frame_id: base_link
name:
- elbow_joint
- shoulder_lift_joint
- shoulder_pan_joint
- wrist_1_joint
- wrist_2_joint
- wrist_3_joint
position:
- 0.3340811314330604
- -1.379586320318038
- -3.349892874769955e-14
- -1.3795737550805116
- -0.5011216971488555
- 6.090576104295855e-14
velocity:
- 0.29178899458998864
- 0.1671140712336954
- -2.001236416165897e-12
- 0.16631972693636699
- -0.4376834918715336
- 1.7560120024739945e-12
effort:
- -13.55515965601591
- -25.93947120630454
- 1.0732943267447528
- -1.6561779079109062
- 0.39614537940101524
- -0.00042567763818292503
---
header:
  stamp:
    sec: 54
    nanosec: 195000000
  frame_id: base_link
name:
- elbow_joint
- shoulder_lift_joint
- shoulder_pan_joint
- wrist_1_joint
- wrist_2_joint
- wrist_3_joint
position:
- 0.3346063516236432
- -1.3792856882860456
- -6.085284865810513e-14
- -1.3792743795715126
- -0.5019095274345942
- 1.1083578643495619e-13
velocity:
- 0.2626100950898862
- 0.15031601592356003
- 1.6257277642151013e-12
- 0.14968775418126504
- -0.393915142641786
- -2.9366370446481938e-12
effort:
- -10.644442052212305
- -18.56151420222705
- 0.02692702956375936
- -1.3955791606198482
- 0.3225537029862871
- -2.7486356436182904e-05
---
header:
  stamp:
    sec: 54
    nanosec: 202000000
  frame_id: base_link
name:
- elbow_joint
- shoulder_lift_joint
- shoulder_pan_joint
- wrist_1_joint
- wrist_2_joint
- wrist_3_joint
position:
- 0.33517904979443935
- -1.378958119457515
- -3.026782022459995e-14
- -1.3789479416145642
- -0.502768574690936
- 5.480804843034028e-14
velocity:
- 0.2863490855608257
- 0.16378441432397095
- 2.9842166064664166e-12
- 0.1632189787313047
- -0.4295236283548905
- -5.412448267350101e-12
effort:
- -10.659807111557958
- -18.602302011396667
- 0.032038837123655406
- -1.3962156046412575
- 0.32278262664300905
- -3.272264076158711e-05
---
header:
  stamp:
    sec: 54
    nanosec: 203000000
  frame_id: base_link
name:
- elbow_joint
- shoulder_lift_joint
- shoulder_pan_joint
- wrist_1_joint
- wrist_2_joint
- wrist_3_joint
position:
- 0.33592781148071504
- -1.3785878249613697
- 5.392753402295714e-14
- -1.378521147454553
- -0.5038917172207468
- -1.0993417143550299e-13
velocity:
- 0.3743808432104618
- 0.20492899981330612
- 4.4567386673494136e-11
- 0.2133970802150773
- -0.5615712650972287
- -3.783511698385311e-11
effort:
- 56.10561860695373
- 150.0
- -23.673033946714124
- 4.617416953573664
- -1.3618051500601405
- 0.008876826454799334
---
header:
  stamp:
    sec: 54
    nanosec: 205000000
  frame_id: base_link
name:
- elbow_joint
- shoulder_lift_joint
- shoulder_pan_joint
- wrist_1_joint
- wrist_2_joint
- wrist_3_joint
position:
- 0.3366350303329393
- -1.3781780424651446
- 3.9739581127084983e-14
- -1.378118032708536
- -0.504952545499032
- -6.951286624361851e-14
velocity:
- 0.3536094260407676
- 0.20489124809027673
- -2.786131568510708e-12
- 0.20155737288318754
- -0.5304141390473438
- 5.695395544069726e-12
effort:
- -10.697277500460162
- -18.712883231514834
- 0.04950666414613039
- -1.3967620103030436
- 0.3232725811026459
- -5.026420174724192e-05
---
header:
  stamp:
    sec: 54
    nanosec: 208000000
  frame_id: base_link
name:
- elbow_joint
- shoulder_lift_joint
- shoulder_pan_joint
- wrist_1_joint
- wrist_2_joint
- wrist_3_joint
position:
- 0.33737152729960174
- -1.3777522382186573
- 5.02835075361473e-14
- -1.3776982294376827
- -0.5060572909490754
- -8.969716492051372e-14
velocity:
- 0.3682484834296681
- 0.21290212327906513
- -2.084014384673427e-12
- 0.2099016355824055
- -0.552372725133147
- 3.691408290151799e-12
effort:
- -10.717585677729083
- -18.760549518671482
- 0.05369055342937732
- -1.3981258069871123
- 0.3236009609550847
- -5.458680752943e-05
---
header:
  stamp:
    sec: 54
    nanosec: 208000000
  frame_id: base_link
name:
- elbow_joint
- shoulder_lift_joint
- shoulder_pan_joint
- wrist_1_joint
- wrist_2_joint
- wrist_3_joint
position:
- 0.33810104123651313
- -1.377331014396729
- 4.115889761434055e-14
- -1.3772824064935225
- -0.5071515618543948
- -7.339446267678252e-14
velocity:
- 0.36475696842999006
- 0.21061191095472992
- -2.6091442374698293e-12
- 0.20791147203990287
- -0.5471354526310581
- 4.696930344660899e-12
effort:
- -10.738288474543891
- -18.796046011744806
- 0.052716251615427666
- -1.4006044212584934
- 0.32399430315373323
- -5.364504370151549e-05
---
header:
  stamp:
    sec: 54
    nanosec: 208000000
  frame_id: base_link
name:
- elbow_joint
- shoulder_lift_joint
- shoulder_pan_joint
- wrist_1_joint
- wrist_2_joint
- wrist_3_joint
position:
- 0.33875760378018516
- -1.376945909685685
- -6.741129655486438e-16
- -1.3769081658430655
- -0.5081364056696919
- 3.8673037522994835e-15
velocity:
- 0.3282812716567745
- 0.1895507198879023
- -8.591518121936481e-12
- 0.18712032493322836
- -0.4924219074317222
- 9.1866167450938e-12
effort:
- -20.884923523852073
- -44.390685603165636
- 3.6377249164534744
- -2.315113692887871
- 0.5791680457142693
- -0.001395613786328534
---
header:
  stamp:
    sec: 54
    nanosec: 208000000
  frame_id: base_link
name:
- elbow_joint
- shoulder_lift_joint
- shoulder_pan_joint
- wrist_1_joint
- wrist_2_joint
- wrist_3_joint
position:
- 0.33988032572972793
- -1.3762964267195024
- -6.172298638733597e-14
- -1.3762682143309992
- -0.5098204885936946
- 1.165528660224756e-13
velocity:
- 0.265907829938203
- 0.15313481778260668
- 1.6873438410391906e-12
- 0.1515674630431381
- -0.3988617449148153
- -3.217183464077067e-12
effort:
- -10.791864009838788
- -18.8328449606665
- 0.028083255657253323
- -1.4116063779283867
- 0.3252594725485566
- -2.863460824944098e-05
---
header:
  stamp:
    sec: 54
    nanosec: 208000000
  frame_id: base_link
name:
- elbow_joint
- shoulder_lift_joint
- shoulder_pan_joint
- wrist_1_joint
- wrist_2_joint
- wrist_3_joint
position:
- 0.3403589598239417
- -1.3760207840473766
- -8.27305353863107e-14
- -1.3759953928970095
- -0.5105384397349071
- 1.5568022015694726e-13
velocity:
- 0.23931704692404746
- 0.13782133599699525
- 3.0455408160656727e-12
- 0.13641071670690977
- -0.358975570400435
- -5.7358770511051205e-12
effort:
- -10.806161325147407
- -18.84575940088249
- 0.022774309812050506
- -1.4142784944519322
- 0.32558033070608466
- -2.3225642519663568e-05
---
header:
  stamp:
    sec: 54
    nanosec: 218000000
  frame_id: base_link
name:
- elbow_joint
- shoulder_lift_joint
- shoulder_pan_joint
- wrist_1_joint
- wrist_2_joint
- wrist_3_joint
position:
- 0.34078973050869754
- -1.3757727056424767
- -9.885273271347263e-14
- -1.3757498536064763
- -0.5111845957619572
- 1.8577919208290982e-13
velocity:
- 0.2153853422134275
- 0.1240392023907135
- 4.103665324217687e-12
- 0.1227696450076124
- -0.323078013339867
- -7.709527460875165e-12
effort:
- -10.819011119529582
- -18.858528439529618
- 0.018466765094517227
- -1.4165824338533886
- 0.325862707994867
- -1.8835809915759972e-05
---
header:
  stamp:
    sec: 54
    nanosec: 218000000
  frame_id: base_link
name:
- elbow_joint
- shoulder_lift_joint
- shoulder_pan_joint
- wrist_1_joint
- wrist_2_joint
- wrist_3_joint
position:
- 0.3415107574567904
- -1.3755307716707603
- -1.2966396042385496e-14
- -1.3753388682475338
- -0.5122661361844254
- -4.900825434633118e-14
velocity:
- 0.36051347416620405
- 0.1407987501361628
- 4.6995796577214977e-11
- 0.2054926798164722
- -0.5407702115497879
- -4.432736816495364e-11
effort:
- 56.02750387551735
- 150.0
- -23.679775814968547
- 4.588299400937982
- -1.3508732461948663
- 0.008864805152820118
---
header:
  stamp:
    sec: 54
    nanosec: 222000000
  frame_id: base_link
name:
- elbow_joint
- shoulder_lift_joint
- shoulder_pan_joint
- wrist_1_joint
- wrist_2_joint
- wrist_3_joint
position:
- 0.34215968171086697
- -1.375141694503828
- 3.071424682772315e-14
- -1.3749689814229347
- -0.5132395225658889
- -4.140219967135108e-14
velocity:
- 0.32446212723782214
- 0.19453858356001144
- 5.71514623820546e-13
- 0.18494341253346944
- -0.48669319086397766
- 2.6217708559705954e-12
effort:
- -10.850119926046544
- -18.973610070851816
- 0.043363534619651756
- -1.4149187692310785
- 0.32611552893933216
- -4.335933172546405e-05
---
header:
  stamp:
    sec: 54
    nanosec: 224000000
  frame_id: base_link
name:
- elbow_joint
- shoulder_lift_joint
- shoulder_pan_joint
- wrist_1_joint
- wrist_2_joint
- wrist_3_joint
position:
- 0.34287704687281256
- -1.3747155250535645
- 6.073920677658317e-14
- -1.3745600832810474
- -0.514315570308955
- -1.0081007412448341e-13
velocity:
- 0.35868258120076013
- 0.21308472521345284
- -1.6287630966171918e-12
- 0.20444907130343554
- -0.5380238717908427
- 2.2793711362822933e-12
effort:
- -10.869313011913132
- -19.032544150256662
- 0.05269321400615516
- -1.4150568681511726
- 0.32635378555897254
- -5.295066876887806e-05
---
header:
  stamp:
    sec: 54
    nanosec: 224000000
  frame_id: base_link
name:
- elbow_joint
- shoulder_lift_joint
- shoulder_pan_joint
- wrist_1_joint
- wrist_2_joint
- wrist_3_joint
position:
- 0.3442304079678086
- -1.3739089029079306
- 9.54469330436957e-15
- -1.373788667456213
- -0.5163456119511766
- -7.881048538708323e-15
velocity:
- 0.32053289085902625
- 0.18969862745724553
- -8.571750080565987e-12
- 0.1827037478797796
- -0.4807993362338172
- 9.430921321662566e-12
effort:
- -20.465424805924876
- -43.22911977278518
- 3.429712481716666
- -2.278245477564623
- 0.5661441041239532
- -0.0013140775182276566
---
header:
  stamp:
    sec: 54
    nanosec: 232000000
  frame_id: base_link
name:
- elbow_joint
- shoulder_lift_joint
- shoulder_pan_joint
- wrist_1_joint
- wrist_2_joint
- wrist_3_joint
position:
- 0.344807367171632
- -1.3735657011284363
- -2.4342494022683408e-14
- -1.3734598007095733
- -0.5172110507567321
- 5.464610158551695e-14
velocity:
- 0.28847960171498777
- 0.17044514542993983
- -2.9525869596480625e-12
- 0.16443337300666483
- -0.432719402552074
- 2.576709678958622e-12
effort:
- -14.82030613974277
- -28.931943595715314
- 1.4140757961714943
- -1.7740873818641274
- 0.42489267319842633
- -0.0005523084455634332
---
header:
  stamp:
    sec: 54
    nanosec: 234000000
  frame_id: base_link
name:
- elbow_joint
- shoulder_lift_joint
- shoulder_pan_joint
- wrist_1_joint
- wrist_2_joint
- wrist_3_joint
position:
- 0.34559329712016756
- -1.3731956247890782
- 5.497401463345752e-14
- -1.373011820640121
- -0.518389945679905
- -1.2555650819306223e-13
velocity:
- 0.3929649743540605
- 0.20491260466487937
- 4.253598948761317e-11
- 0.2239900349746604
- -0.5894474618134093
- -3.76665573731394e-11
effort:
- 55.997411781253994
- 150.0
- -23.666474652811853
- 4.574746016613995
- -1.3438944782387856
- 0.008840106302187518
---
header:
  stamp:
    sec: 54
    nanosec: 235000000
  frame_id: base_link
name:
- elbow_joint
- shoulder_lift_joint
- shoulder_pan_joint
- wrist_1_joint
- wrist_2_joint
- wrist_3_joint
position:
- 0.34636730074138317
- -1.3727360623102352
- 7.278932505825885e-14
- -1.372570638576137
- -0.5195509511118674
- -1.262571248410928e-13
velocity:
- 0.38700181073623896
- 0.22978123947612156
- -2.8562495250905595e-12
- 0.22059103216319378
- -0.5805027160903354
- 6.523642737121804e-12
effort:
- -10.965096945341243
- -19.230495305124464
- 0.06180185620958891
- -1.4235848384064298
- 0.32794147789002187
- -6.220150395567417e-05
---
header:
  stamp:
    sec: 54
    nanosec: 236000000
  frame_id: base_link
name:
- elbow_joint
- shoulder_lift_joint
- shoulder_pan_joint
- wrist_1_joint
- wrist_2_joint
- wrist_3_joint
position:
- 0.347130570667485
- -1.3722844560791365
- 5.908135930616776e-14
- -1.3721355747180788
- -0.5206958560009441
- -1.0221252519642472e-13
velocity:
- 0.3816349630089073
- 0.22580311553399873
- -3.743604384820465e-12
- 0.21753192896418502
- -0.572452444492295
- 6.552165060513815e-12
effort:
- -10.986884008672304
- -19.26646185282593
- 0.060040531700617045
- -1.4262994846742312
- 0.3283453200457156
- -6.055322617732557e-05
---
header:
  stamp:
    sec: 54
    nanosec: 240000000
  frame_id: base_link
name:
- elbow_joint
- shoulder_lift_joint
- shoulder_pan_joint
- wrist_1_joint
- wrist_2_joint
- wrist_3_joint
position:
- 0.3478175136014218
- -1.371869716913842
- 1.4844532864638386e-14
- -1.3717440172451272
- -0.521726270401613
- -1.89050843895568e-14
velocity:
- 0.3434714668029476
- 0.20322280401957094
- -1.1586777978050966e-11
- 0.19577873619911196
- -0.5152072001290868
- 1.2629348955517372e-11
effort:
- -24.967968955621153
- -54.562901314366776
- 4.992936773982666
- -2.680101025394592
- 0.6765765823636788
- -0.0019028418895157655
---
header:
  stamp:
    sec: 54
    nanosec: 242000000
  frame_id: base_link
name:
- elbow_joint
- shoulder_lift_joint
- shoulder_pan_joint
- wrist_1_joint
- wrist_2_joint
- wrist_3_joint
position:
- 0.3485690955743439
- -1.3714287452225655
- 4.346047060903014e-14
- -1.3713156155209694
- -0.5228536433611429
- -7.643572089426694e-14
velocity:
- 0.3757909866738596
- 0.22048584571440438
- -8.422412073327834e-13
- 0.21420086241401673
- -0.5636864800051553
- 1.1775615205156242e-12
effort:
- -11.027843259011428
- -19.337491631941788
- 0.05802531013364377
- -1.4311198562451781
- 0.32908532684013836
- -5.880118543028671e-05
---
header:
  stamp:
    sec: 54
    nanosec: 244000000
  frame_id: base_link
name:
- elbow_joint
- shoulder_lift_joint
- shoulder_pan_joint
- wrist_1_joint
- wrist_2_joint
- wrist_3_joint
position:
- 0.34931218601713143
- -1.3709938707002407
- 3.4153232902800374e-14
- -1.370892053968456
- -0.5239682790252719
- -5.978667763911002e-14
velocity:
- 0.3715452213611991
- 0.21743726115059514
- -2.2704503208070825e-12
- 0.21178077620630034
- -0.5573178320287332
- 4.049198476518967e-12
effort:
- -11.048836493307219
- -19.37300465893881
- 0.056704348878553086
- -1.4336517601289385
- 0.329464221100398
- -5.7552818636111536e-05
---
header:
  stamp:
    sec: 54
    nanosec: 246000000
  frame_id: base_link
name:
- elbow_joint
- shoulder_lift_joint
- shoulder_pan_joint
- wrist_1_joint
- wrist_2_joint
- wrist_3_joint
position:
- 0.35004763408230055
- -1.3705644836301505
- 2.62737120822586e-14
- -1.3704728485712039
- -0.5250714511229808
- -4.5671850276644183e-14
velocity:
- 0.3677240325552643
- 0.21469353503438315
- -1.8027818821098052e-12
- 0.2096026985807965
- -0.5515860488223574
- 3.2123713411547072e-12
effort:
- -11.069554321334676
- -19.408373543489382
- 0.0555343018477086
- -1.4361202459891647
- 0.3298347265296918
- -5.644782655176716e-05
---
header:
  stamp:
    sec: 54
    nanosec: 248000000
  frame_id: base_link
name:
- elbow_joint
- shoulder_lift_joint
- shoulder_pan_joint
- wrist_1_joint
- wrist_2_joint
- wrist_3_joint
position:
- 0.3507762040076137
- -1.3701400352670714
- 1.962760307190326e-14
- -1.3700575637136858
- -0.5261643060109126
- -3.3749848696244164e-14
velocity:
- 0.36428496263025134
- 0.21222418152990163
- -1.4067410430973482e-12
- 0.207642428718357
- -0.5464274439369804
- 2.5027757644124904e-12
effort:
- -11.090024081685462
- -19.443607298493916
- 0.054497793862841926
- -1.4385319299846966
- 0.3301976075670589
- -5.546996355823866e-05
---
header:
  stamp:
    sec: 54
    nanosec: 250000000
  frame_id: base_link
name:
- elbow_joint
- shoulder_lift_joint
- shoulder_pan_joint
- wrist_1_joint
- wrist_2_joint
- wrist_3_joint
position:
- 0.35149858360705716
- -1.3697200317403022
- 1.4045414280833176e-14
- -1.3696458073419275
- -0.5272478754100455
- -2.3722664751971897e-14
velocity:
- 0.3611897996980315
- 0.21000176337597634
- -1.0725881988138397e-12
- 0.205878185842611
- -0.5417846995404607
- 1.9032726783496656e-12
effort:
- -11.11026954621059
- -19.478713512143532
- 0.05357944736296655
- -1.4408925713722585
- 0.330553517759903
- -5.4604729447475744e-05
---
header:
  stamp:
    sec: 54
    nanosec: 252000000
  frame_id: base_link
name:
- elbow_joint
- shoulder_lift_joint
- shoulder_pan_joint
- wrist_1_joint
- wrist_2_joint
- wrist_3_joint
position:
- 0.3522153919132184
- -1.3693040285662115
- 9.379411887344597e-15
- -1.369237226607352
- -0.52832308786926
- -1.5330239108649797e-14
velocity:
- 0.3584041530592973
- 0.20800158703754615
- -7.918201684609105e-13
- 0.2042903672548392
- -0.5376062295838823
- 1.3988324387703699e-12
effort:
- -11.130312034065557
- -19.513699870507157
- 0.0527658147540628
- -1.4432072608508062
- 0.33090303681027555
- -5.383942392092792e-05
---
header:
  stamp:
    sec: 54
    nanosec: 254000000
  frame_id: base_link
name:
- elbow_joint
- shoulder_lift_joint
- shoulder_pan_joint
- wrist_1_joint
- wrist_2_joint
- wrist_3_joint
position:
- 0.35292718605542606
- -1.3688916257095314
- 5.500929716500852e-15
- -1.3688315039462404
- -0.5293907790825484
- -8.345062782403507e-15
velocity:
- 0.35589707108467544
- 0.2062014283330271
- -5.570348869665676e-13
- 0.20286133052621289
- -0.533845606623223
- 9.766146225054229e-13
effort:
- -11.150170669516577
- -19.54857398151055
- 0.05204511041793079
- -1.4454805046678196
- 0.3312466794132046
- -5.3162899481010396e-05
---
header:
  stamp:
    sec: 54
    nanosec: 256000000
  frame_id: base_link
name:
- elbow_joint
- shoulder_lift_joint
- shoulder_pan_joint
- wrist_1_joint
- wrist_2_joint
- wrist_3_joint
position:
- 0.35363446745007593
- -1.3684824631385206
- 2.2980347360145374e-15
- -1.3684283535512456
- -0.5304517011745039
- -2.569592402682692e-15
velocity:
- 0.3536406973077268
- 0.20458128549905139
- -3.6177441251061815e-13
- 0.2015751974707781
- -0.5304610459588658
- 6.248196404712303e-13
effort:
- -11.169862611739134
- -19.5833432481276
- 0.05140698370308377
- -1.4477162970891895
- 0.3315849029506131
- -5.256535173952269e-05
---
header:
  stamp:
    sec: 54
    nanosec: 256000000
  frame_id: base_link
name:
- elbow_joint
- shoulder_lift_joint
- shoulder_pan_joint
- wrist_1_joint
- wrist_2_joint
- wrist_3_joint
position:
- 0.3543376873719243
- -1.3680762168246121
- -3.265524435193066e-16
- -1.3680275181957553
- -0.5315065310572601
- 2.1689713054016505e-15
velocity:
- 0.3516099609086675
- 0.2031231569485425
- -2.0042648096740834e-13
- 0.20041767772116711
- -0.5274149413611529
- 3.340661081097096e-13
effort:
- -11.189403259813815
- -19.618014779919857
- 0.050842326138430226
- -1.4499181829980479
- 0.33191811420285094
- -5.203814101756475e-05
---
header:
  stamp:
    sec: 54
    nanosec: 256000000
  frame_id: base_link
name:
- elbow_joint
- shoulder_lift_joint
- shoulder_pan_joint
- wrist_1_joint
- wrist_2_joint
- wrist_3_joint
position:
- 0.3560528407623951
- -1.3670802186426099
- -8.182365361177346e-14
- -1.3670498807620208
- -0.5340792611425121
- 1.6307519020992348e-13
velocity:
- 0.2563236614581899
- 0.14778992462219903
- 2.9967269984942924e-12
- 0.14610448699009068
- -0.3844854922029007
- -5.964513605238864e-12
effort:
- -11.240073075225249
- -19.652038466061608
- 0.027086694986482376
- -1.460274517834374
- 0.3330317769560268
- -2.776935897768848e-05
---
header:
  stamp:
    sec: 54
    nanosec: 256000000
  frame_id: base_link
name:
- elbow_joint
- shoulder_lift_joint
- shoulder_pan_joint
- wrist_1_joint
- wrist_2_joint
- wrist_3_joint
position:
- 0.3565142233533293
- -1.3668141967781788
- -9.786153817383248e-14
- -1.3667868926849553
- -0.5347713350288226
- 1.950247998345276e-13
velocity:
- 0.230691295293045
- 0.13301093215301513
- 4.054587828677958e-12
- 0.1314940382610032
- -0.3460369429610254
- -8.064840462118639e-12
effort:
- -11.253608039578987
- -19.664153386746587
- 0.02196350158194314
- -1.4627841255513019
- 0.3333130866305407
- -2.252111901924359e-05
---
header:
  stamp:
    sec: 54
    nanosec: 267000000
  frame_id: base_link
name:
- elbow_joint
- shoulder_lift_joint
- shoulder_pan_joint
- wrist_1_joint
- wrist_2_joint
- wrist_3_joint
position:
- 0.3569294676851353
- -1.3665747771002035
- -1.098175620184051e-13
- -1.3665502034156507
- -0.5353942015264631
- 2.1891734055818547e-13
velocity:
- 0.20762216574639802
- 0.11970983893146915
- 4.8634603289077205e-12
- 0.11834463440790116
- -0.3114332486455531
- -9.679132495499232e-12
effort:
- -11.265771739360725
- -19.676169728274196
- 0.017807392161131367
- -1.464944780140177
- 0.33356010051165275
- -1.8262469595706598e-05
---
header:
  stamp:
    sec: 54
    nanosec: 267000000
  frame_id: base_link
name:
- elbow_joint
- shoulder_lift_joint
- shoulder_pan_joint
- wrist_1_joint
- wrist_2_joint
- wrist_3_joint
position:
- 0.3576698542488992
- -1.366355337719525
- -2.904150256606853e-14
- -1.366128183075843
- -0.536504781372429
- -3.396241130264954e-14
velocity:
- 0.3701932820164261
- 0.12970699412497744
- 4.47824373070449e-11
- 0.21101017029056354
- -0.5552899233345939
- -4.5728587583226954e-11
effort:
- 55.842083106470675
- 150.0
- -23.66845746655626
- 4.514791452695493
- -1.3203947551313804
- 0.008806558416312388
---
header:
  stamp:
    sec: 54
    nanosec: 272000000
  frame_id: base_link
name:
- elbow_joint
- shoulder_lift_joint
- shoulder_pan_joint
- wrist_1_joint
- wrist_2_joint
- wrist_3_joint
position:
- 0.358336202156905
- -1.3659684573826607
- 3.0402871770040965e-14
- -1.3657483647686695
- -0.5375043032349229
- -4.21283445100542e-14
velocity:
- 0.333173954116234
- 0.2012668859232462
- 1.674272786383879e-11
- 0.18990915369689015
- -0.499760931297458
- -1.1804474064902593e-11
effort:
- 14.985631185710144
- 46.66896429857638
- -9.233819978753584
- 0.8770919797938335
- -0.3134135348862442
- 0.003418823639710559
---
header:
  stamp:
    sec: 54
    nanosec: 273000000
  frame_id: base_link
name:
- elbow_joint
- shoulder_lift_joint
- shoulder_pan_joint
- wrist_1_joint
- wrist_2_joint
- wrist_3_joint
position:
- 0.35910258194070394
- -1.3655192824527267
- 7.312655096518005e-14
- -1.3653115282925297
- -0.5386538729108558
- -1.30456147914785e-13
velocity:
- 0.3831898921202155
- 0.22942286910904808
- 7.840409311371532e-12
- 0.21841823843560726
- -0.574784838237024
- -6.0974350568621105e-12
effort:
- 4.918689292642841
- 21.185543364138557
- -5.669558385722831
- -0.016660833046663652
- -0.06556233534190108
- 0.0020772589585333736
---
header:
  stamp:
    sec: 54
    nanosec: 275000000
  frame_id: base_link
name:
- elbow_joint
- shoulder_lift_joint
- shoulder_pan_joint
- wrist_1_joint
- wrist_2_joint
- wrist_3_joint
position:
- 0.3598256570804256
- -1.365086354207301
- 4.5044665190102524e-14
- -1.3648993754624925
- -0.5397384856202755
- -7.604320501335771e-14
velocity:
- 0.36153756971135115
- 0.21646412265905668
- -3.748380945911567e-12
- 0.2060764147861771
- -0.542306354543973
- 6.745281416753457e-12
effort:
- -11.336002416218063
- -19.89719734048982
- 0.055929509276156975
- -1.4645306024169666
- 0.3342277279400449
- -5.633329947731085e-05
---
header:
  stamp:
    sec: 54
    nanosec: 278000000
  frame_id: base_link
name:
- elbow_joint
- shoulder_lift_joint
- shoulder_pan_joint
- wrist_1_joint
- wrist_2_joint
- wrist_3_joint
position:
- 0.3605430913725932
- -1.3646587187865067
- 3.675496683526169e-14
- -1.3644904379158476
- -0.540814637058475
- -6.183705486822255e-14
velocity:
- 0.3587171460587056
- 0.21381771038780448
- -2.3424031811436485e-12
- 0.20446877328446966
- -0.5380757190730491
- 4.021314531366116e-12
effort:
- -11.356150961232842
- -19.93241506493535
- 0.054951537697742366
- -1.4668477980357713
- 0.3345647810234956
- -5.54900788681629e-05
---
header:
  stamp:
    sec: 54
    nanosec: 280000000
  frame_id: base_link
name:
- elbow_joint
- shoulder_lift_joint
- shoulder_pan_joint
- wrist_1_joint
- wrist_2_joint
- wrist_3_joint
position:
- 0.36128878223531496
- -1.3642168469078741
- 4.4925004832091386e-14
- -1.3640653941242242
- -0.5419331733525994
- -8.067858736909095e-14
velocity:
- 0.3728454314504277
- 0.2209359393481248
- -1.9345679572180252e-12
- 0.21252189595224819
- -0.5592681471631232
- 3.328615161279913e-12
effort:
- -11.3763931891561
- -19.980900660415877
- 0.05918378190336257
- -1.468082130279057
- 0.3348408705206772
- -5.996067044400354e-05
---
header:
  stamp:
    sec: 54
    nanosec: 282000000
  frame_id: base_link
name:
- elbow_joint
- shoulder_lift_joint
- shoulder_pan_joint
- wrist_1_joint
- wrist_2_joint
- wrist_3_joint
position:
- 0.3620265706786735
- -1.3637811622170182
- 3.582266919339705e-14
- -1.3636448547113853
- -0.5430398560175814
- -6.405919747703237e-14
velocity:
- 0.3688942216477814
- 0.2178423454165264
- -2.340633329517283e-12
- 0.21026970637124034
- -0.5533413324569673
- 4.265972991523981e-12
effort:
- -11.39701439758753
- -20.016081749067762
- 0.05787138910954138
- -1.4705155235149059
- 0.33518531032320653
- -5.87505457103803e-05
---
header:
  stamp:
    sec: 54
    nanosec: 283000000
  frame_id: base_link
name:
- elbow_joint
- shoulder_lift_joint
- shoulder_pan_joint
- wrist_1_joint
- wrist_2_joint
- wrist_3_joint
position:
- 0.36275724694435674
- -1.36335104599525
- 2.8091221332998573e-14
- -1.3632283692398397
- -0.5441358704160585
- -4.9924070380450666e-14
velocity:
- 0.3653381328132915
- 0.21505811087375606
- -1.883342006653299e-12
- 0.2082427357294359
- -0.5480071992079273
- 3.4307730267801873e-12
effort:
- -11.417368595520069
- -20.051119752983244
- 0.05670860445093867
- -1.472887487389501
- 0.3355217574067073
- -5.76791810282356e-05
---
header:
  stamp:
    sec: 54
    nanosec: 286000000
  frame_id: base_link
name:
- elbow_joint
- shoulder_lift_joint
- shoulder_pan_joint
- wrist_1_joint
- wrist_2_joint
- wrist_3_joint
position:
- 0.36348152225013286
- -1.3629259413956607
- 2.1545843378084517e-14
- -1.3628155323154572
- -0.5452222833746818
- -3.7941776750919595e-14
velocity:
- 0.362137652862565
- 0.21255229978537746
- -1.4948276991222365e-12
- 0.2064184621523035
- -0.5432064792841343
- 2.7203482522164535e-12
effort:
- -11.437481971530916
- -20.086023078552465
- 0.05567814736093528
- -1.4752043835274562
- 0.3358509239202245
- -5.6730805086482046e-05
---
header:
  stamp:
    sec: 54
    nanosec: 288000000
  frame_id: base_link
name:
- elbow_joint
- shoulder_lift_joint
- shoulder_pan_joint
- wrist_1_joint
- wrist_2_joint
- wrist_3_joint
position:
- 0.3642000366919931
- -1.362505347256032
- 1.602519346864384e-14
- -1.3624059790835206
- -0.5463000550374373
- -2.782287797647244e-14
velocity:
- 0.3592572209071956
- 0.2102970698059392
- -1.1658148404980473e-12
- 0.20477661593331967
- -0.5388858313530266
- 2.117687969427351e-12
effort:
- -11.457377614554218
- -20.120799498541913
- 0.0547648238843157
- -1.477471784111922
- 0.33617342828851043
- -5.589146977323331e-05
---
header:
  stamp:
    sec: 54
    nanosec: 289000000
  frame_id: base_link
name:
- elbow_joint
- shoulder_lift_joint
- shoulder_pan_joint
- wrist_1_joint
- wrist_2_joint
- wrist_3_joint
position:
- 0.36491336635632954
- -1.3620888125303678
- 1.1388505733494924e-14
- -1.3619993811747844
- -0.5473700495339123
- -1.931375748492138e-14
velocity:
- 0.35666483214761735
- 0.2082673628245217
- -8.882178846592037e-13
- 0.20329895433662884
- -0.5349972482153105
- 1.6088658183477378e-12
effort:
- -11.47707621286283
- -20.155456811626713
- 0.05395533938765477
- -1.4796946123529822
- 0.33648981834717895
- -5.5148944982327294e-05
---
header:
  stamp:
    sec: 54
    nanosec: 291000000
  frame_id: base_link
name:
- elbow_joint
- shoulder_lift_joint
- shoulder_pan_joint
- wrist_1_joint
- wrist_2_joint
- wrist_3_joint
position:
- 0.3656220297208951
- -1.3616759312772715
- 7.513089686394969e-15
- -1.361595443056928
- -0.5484330445807356
- -1.2193120071883012e-14
velocity:
- 0.354331682264226
- 0.20644062654134177
- -6.54979976505432e-13
- 0.2019690588999533
- -0.531497523391614
- 1.180867903460836e-12
effort:
- -11.496596309780184
- -20.19000268367611
- 0.05323803595859454
- -1.4818772244884284
- 0.3368005799132506
- -5.4492484739258945e-05
---
header:
  stamp:
    sec: 54
    nanosec: 294000000
  frame_id: base_link
name:
- elbow_joint
- shoulder_lift_joint
- shoulder_pan_joint
- wrist_1_joint
- wrist_2_joint
- wrist_3_joint
position:
- 0.3663264934156672
- -1.3612663381494863
- 4.292071616074255e-15
- -1.3611938987508625
- -0.5494897401228725
- -6.2677799921786566e-15
velocity:
- 0.35223184736938223
- 0.20479656388655232
- -4.599463171439666e-13
- 0.2007721530072514
- -0.5283477710505048
- 8.225573000508746e-13
effort:
- -11.515954531007397
- -20.224444534648857
- 0.0526026698187351
- -1.4840234803829973
- 0.3371061442264413
- -5.391262848214314e-05
---
header:
  stamp:
    sec: 54
    nanosec: 295000000
  frame_id: base_link
name:
- elbow_joint
- shoulder_lift_joint
- shoulder_pan_joint
- wrist_1_joint
- wrist_2_joint
- wrist_3_joint
position:
- 0.36702717740762564
- -1.3608597043344808
- 1.6324621042839156e-15
- -1.3607945088754085
- -0.5505407661107924
- -1.3698576466971804e-15
velocity:
- 0.3503419959642061
- 0.2033169074973198
- -2.97760947842729e-13
- 0.19969493770410796
- -0.5255129939437112
- 5.242646594627587e-13
effort:
- -11.535165786914051
- -20.258789460925247
- 0.05204022216389703
- -1.486136804463815
- 0.3374068944239214
- -5.3401031769787355e-05
---
header:
  stamp:
    sec: 54
    nanosec: 297000000
  frame_id: base_link
name:
- elbow_joint
- shoulder_lift_joint
- shoulder_pan_joint
- wrist_1_joint
- wrist_2_joint
- wrist_3_joint
position:
- 0.36772445966705203
- -1.3604557339009768
- -5.465574473174643e-16
- -1.3603970579875044
- -0.551586689499917
- 2.6474288567577173e-15
velocity:
- 0.34864112969971284
- 0.20198521674707307
- -1.6375139091917568e-13
- 0.19872544393153507
- -0.5229616945477716
- 2.775869811788567e-13
effort:
- -11.55424345272131
- -20.293044184988556
- 0.051542737989354215
- -1.488220238445669
- 0.33770317118601145
- -5.295032167620978e-05
---
header:
  stamp:
    sec: 54
    nanosec: 299000000
  frame_id: base_link
name:
- elbow_joint
- shoulder_lift_joint
- shoulder_pan_joint
- wrist_1_joint
- wrist_2_joint
- wrist_3_joint
position:
- 0.3683853470340895
- -1.3600731605107443
- -1.705123354535665e-14
- -1.3600203521880483
- -0.5525780205503736
- 3.670100478809423e-14
velocity:
- 0.33044368339515223
- 0.1912866950718838
- -4.6313647361628796e-14
- 0.18835289953655196
- -0.49566552509160516
- 5.576095141179849e-14
effort:
- -11.572860074212711
- -20.314550472162903
- 0.04633854176012064
- -1.4912412764263208
- 0.338045011729651
- -4.763594445869862e-05
---
header:
  stamp:
    sec: 54
    nanosec: 299000000
  frame_id: base_link
name:
- elbow_joint
- shoulder_lift_joint
- shoulder_pan_joint
- wrist_1_joint
- wrist_2_joint
- wrist_3_joint
position:
- 0.3690468123308424
- -1.3596908444596238
- -1.5512907221393427e-14
- -1.359643316968922
- -0.5535702184955101
- 3.312793239457967e-14
velocity:
- 0.33073264837670224
- 0.19115802556028644
- 7.789775768873852e-13
- 0.18851760956384866
- -0.4960989725688181
- -1.6464260510495876e-12
effort:
- -11.590838163567883
- -20.348236668726674
- 0.04642711030100589
- -1.4930831093328136
- 0.3383147561471683
- -4.777644290483491e-05
---
header:
  stamp:
    sec: 54
    nanosec: 306000000
  frame_id: base_link
name:
- elbow_joint
- shoulder_lift_joint
- shoulder_pan_joint
- wrist_1_joint
- wrist_2_joint
- wrist_3_joint
position:
- 0.37017791798909366
- -1.3590346298596678
- -6.561821080812725e-14
- -1.3589985867429684
- -0.5552668769825837
- 1.3782042665173222e-13
velocity:
- 0.2678934451630575
- 0.15470165890406454
- 2.122461061071501e-12
- 0.15269926371280826
- -0.4018401677562926
- -4.448101609266786e-12
effort:
- -11.623673382305855
- -20.369213758803664
- 0.030515105183592142
- -1.4998142821264857
- 0.33898904667222474
- -3.1430244269167755e-05
---
header:
  stamp:
    sec: 54
    nanosec: 308000000
  frame_id: base_link
name:
- elbow_joint
- shoulder_lift_joint
- shoulder_pan_joint
- wrist_1_joint
- wrist_2_joint
- wrist_3_joint
position:
- 0.3708934595225904
- -1.358681746474827
- 1.0662219081147723e-14
- -1.3585907280700587
- -0.5563401892832702
- -3.3262943041560085e-14
velocity:
- 0.35777076682288217
- 0.19656015807037786
- 4.049379451545598e-11
- 0.20392933666855456
- -0.5366561505367805
- -4.144771331704433e-11
effort:
- 55.7028067568265
- 150.0
- -23.645677025923014
- 4.457040154776988
- -1.295431089122009
- 0.008754612356952409
---
header:
  stamp:
    sec: 54
    nanosec: 310000000
  frame_id: base_link
name:
- elbow_joint
- shoulder_lift_joint
- shoulder_pan_joint
- wrist_1_joint
- wrist_2_joint
- wrist_3_joint
position:
- 0.3716041135703876
- -1.3582675718273434
- 1.83261233146047e-14
- -1.3581856552628688
- -0.5574061703550297
- -3.528993966766337e-14
velocity:
- 0.355327023951991
- 0.20708732376453312
- -6.181934304738679e-13
- 0.20253640366456294
- -0.5329905359241254
- 1.8826919190306768e-12
effort:
- -11.658082370285696
- -20.491743525689483
- 0.05421312662119313
- -1.4984222621978278
- 0.33921438904963264
- -5.561058985584374e-05
---
header:
  stamp:
    sec: 54
    nanosec: 311000000
  frame_id: base_link
name:
- elbow_joint
- shoulder_lift_joint
- shoulder_pan_joint
- wrist_1_joint
- wrist_2_joint
- wrist_3_joint
position:
- 0.3723103688802133
- -1.35785681464455
- 1.399444159989593e-14
- -1.357783089736206
- -0.5584655533197392
- -2.688106537634206e-14
velocity:
- 0.3531276548955603
- 0.20537859139037476
- -1.00008499745452e-12
- 0.20128276330519793
- -0.5296914823362018
- 1.981543401585739e-12
effort:
- -11.677351045064873
- -20.526025202307867
- 0.0535348603707415
- -1.5005429615628385
- 0.33950586648605435
- -5.4987738544623374e-05
---
header:
  stamp:
    sec: 54
    nanosec: 313000000
  frame_id: base_link
name:
- elbow_joint
- shoulder_lift_joint
- shoulder_pan_joint
- wrist_1_joint
- wrist_2_joint
- wrist_3_joint
position:
- 0.3730126653257198
- -1.3574491331800371
- 1.0338374831120205e-14
- -1.3573827807622145
- -0.5595189979879742
- -1.9764868855402193e-14
velocity:
- 0.3511482227377025
- 0.20384073225073368
- -7.823325320899244e-13
- 0.20015448697217833
- -0.5267223341007746
- 1.5589127211335096e-12
effort:
- -11.696467400610791
- -20.560211050991107
- 0.05293402744129612
- -1.502629320078482
- 0.3397924556824912
- -5.443765882092434e-05
---
header:
  stamp:
    sec: 54
    nanosec: 315000000
  frame_id: base_link
name:
- elbow_joint
- shoulder_lift_joint
- shoulder_pan_joint
- wrist_1_joint
- wrist_2_joint
- wrist_3_joint
position:
- 0.373678065460228
- -1.3570632198618975
- -7.109234932095705e-15
- -1.3570035026852827
- -0.5605170981896279
- 1.6863782645378568e-14
velocity:
- 0.3327000671291375
- 0.19295665902509715
- -5.909261795167264e-13
- 0.1896390382728267
- -0.4990501006890904
- 1.1814091371853408e-12
effort:
- -11.715114488418505
- -20.581413220896362
- 0.047550603686975564
- -1.5056703336997477
- 0.3401256270961739
- -4.8936644488386514e-05
---
header:
  stamp:
    sec: 54
    nanosec: 318000000
  frame_id: base_link
name:
- elbow_joint
- shoulder_lift_joint
- shoulder_pan_joint
- wrist_1_joint
- wrist_2_joint
- wrist_3_joint
position:
- 0.3743435922477053
- -1.35667789787566
- -6.794726963815896e-15
- -1.3566241524164262
- -0.5615153883708434
- 1.5733502747924168e-14
velocity:
- 0.332763393737151
- 0.1926609931181429
- 2.816215143031098e-13
- 0.18967513442633616
- -0.4991450906064494
- -6.497996585252963e-13
effort:
- -11.733104758889109
- -20.61505795154344
- 0.04756871157654661
- -1.507506534182282
- 0.34038546096036393
- -4.901067673168653e-05
---
header:
  stamp:
    sec: 54
    nanosec: 319000000
  frame_id: base_link
name:
- elbow_joint
- shoulder_lift_joint
- shoulder_pan_joint
- wrist_1_joint
- wrist_2_joint
- wrist_3_joint
position:
- 0.375042566356213
- -1.3562741080881253
- 7.798783030377057e-15
- -1.3562257371747986
- -0.5625638495336921
- -1.5890076007710984e-14
velocity:
- 0.3494870543633748
- 0.20189489380630393
- 2.5853321219959646e-13
- 0.19920762098349876
- -0.5242305815457038
- -5.731040642054097e-13
effort:
- -11.751402271256369
- -20.66158830016373
- 0.05245157855440796
- -1.5083490084161724
- 0.34059216996551095
- -5.411675708176823e-05
---
header:
  stamp:
    sec: 54
    nanosec: 322000000
  frame_id: base_link
name:
- elbow_joint
- shoulder_lift_joint
- shoulder_pan_joint
- wrist_1_joint
- wrist_2_joint
- wrist_3_joint
position:
- 0.37573830972078043
- -1.3558726972792572
- 5.232798712989531e-15
- -1.3558291634569566
- -0.5636074645805252
- -1.0679448939002976e-14
velocity:
- 0.3478716822714141
- 0.20070540442959958
- -4.702063391426314e-13
- 0.19828685890223138
- -0.5218075234033133
- 1.0064900302086954e-12
effort:
- -11.770200947118232
- -20.695516614135165
- 0.051989084640615385
- -1.5103640454223661
- 0.3408659535102354
- -5.368886686025807e-05
---
header:
  stamp:
    sec: 54
    nanosec: 323000000
  frame_id: base_link
name:
- elbow_joint
- shoulder_lift_joint
- shoulder_pan_joint
- wrist_1_joint
- wrist_2_joint
- wrist_3_joint
position:
- 0.3764311454155555
- -1.3554734275512765
- 3.0923993101338224e-15
- -1.3554342471109024
- -0.5646467181226724
- -6.314679976075163e-15
velocity:
- 0.34641784737647136
- 0.19963486398622052
- -3.4105704371789614e-13
- 0.1974581730102459
- -0.5196267710617012
- 7.443802518825038e-13
effort:
- -11.788887010216486
- -20.729372074339043
- 0.05158052236729619
- -1.5123536374072293
- 0.3411358600935166
- -5.331268208568885e-05
---
header:
  stamp:
    sec: 54
    nanosec: 328000000
  frame_id: base_link
name:
- elbow_joint
- shoulder_lift_joint
- shoulder_pan_joint
- wrist_1_joint
- wrist_2_joint
- wrist_3_joint
position:
- 0.3776792277875679
- -1.3547521139475551
- -3.96529621937315e-14
- -1.354722840158201
- -0.5665188416804211
- 8.57318293274254e-14
velocity:
- 0.2955984563906637
- 0.17025423983583413
- -1.6295203034144556e-12
- 0.1684911201574419
- -0.443397684571227
- 8.750465629869808e-13
effort:
- -15.938016296446685
- -31.177095683990206
- 1.4823901432035222
- -1.8812402847161063
- 0.4408311334053819
- -0.0005745865388588536
---
header:
  stamp:
    sec: 54
    nanosec: 328000000
  frame_id: base_link
name:
- elbow_joint
- shoulder_lift_joint
- shoulder_pan_joint
- wrist_1_joint
- wrist_2_joint
- wrist_3_joint
position:
- 0.37837797167493276
- -1.3543639536370429
- 9.289408361878738e-15
- -1.3543245561431523
- -0.5675669575117718
- -2.0647971474211602e-14
velocity:
- 0.3493719438857887
- 0.20060569733936795
- 1.3600855684747781e-11
- 0.19914200786733383
- -0.5240579159321397
- -1.5268425412884312e-11
effort:
- 9.959824536044762
- 34.37840143486539
- -7.602642923389226
- 0.4021092238908322
- -0.18257153466891918
- 0.002783061005919909
---
header:
  stamp:
    sec: 54
    nanosec: 331000000
  frame_id: base_link
name:
- elbow_joint
- shoulder_lift_joint
- shoulder_pan_joint
- wrist_1_joint
- wrist_2_joint
- wrist_3_joint
position:
- 0.37900684117472844
- -1.3539976985352222
- -2.0729165202504462e-14
- -1.353966100527804
- -0.5685102617612761
- 4.5279850755038714e-14
velocity:
- 0.3144347497139948
- 0.18119768189384391
- -3.97897079867926e-12
- 0.1792278073812712
- -0.471652124539403
- 4.515866847132344e-12
effort:
- -18.305104268850464
- -37.16209555263217
- 2.3057590571367568
- -2.088725366831852
- 0.49715936579684794
- -0.0008827958621786608
---
header:
  stamp:
    sec: 54
    nanosec: 334000000
  frame_id: base_link
name:
- elbow_joint
- shoulder_lift_joint
- shoulder_pan_joint
- wrist_1_joint
- wrist_2_joint
- wrist_3_joint
position:
- 0.37967282372384603
- -1.353614928681739
- -3.57193080193231e-15
- -1.3535864904750712
- -0.569509235585058
- 7.533530796473901e-15
velocity:
- 0.33299127467949863
- 0.19138492678457764
- 9.636787895450638e-13
- 0.18980502655316092
- -0.49948691202437273
- -2.0682830448315315e-12
effort:
- -11.876074839207758
- -20.882672246174042
- 0.04786763087727798
- -1.5219852596544978
- 0.3423933783748968
- -4.960569189034356e-05
---
header:
  stamp:
    sec: 54
    nanosec: 336000000
  frame_id: base_link
name:
- elbow_joint
- shoulder_lift_joint
- shoulder_pan_joint
- wrist_1_joint
- wrist_2_joint
- wrist_3_joint
position:
- 0.38037220801807403
- -1.353213435813596
- 1.0461696756708261e-14
- -1.353187841427577
- -0.5705583120264867
- -2.318245451431799e-14
velocity:
- 0.3496921472237044
- 0.20074643411045037
- 9.851147675377092e-14
- 0.1993245239164962
- -0.5245382208353008
- -1.6057294383031717e-13
effort:
- -11.894201181465702
- -20.929095147579766
- 0.05281192481636567
- -1.5227754884217322
- 0.3425850452303466
- -5.477703908277009e-05
---
header:
  stamp:
    sec: 54
    nanosec: 338000000
  frame_id: base_link
name:
- elbow_joint
- shoulder_lift_joint
- shoulder_pan_joint
- wrist_1_joint
- wrist_2_joint
- wrist_3_joint
position:
- 0.38106832054978873
- -1.352814092232181
- 7.766270409309427e-15
- -1.3527910572844577
- -0.5716024808240397
- -1.7325448661779316e-14
velocity:
- 0.3480562658457303
- 0.19967179070333543
- -6.022777762626497e-13
- 0.19839207154190042
- -0.5220843987639074
- 1.3735089454680605e-12
effort:
- -11.912823930356334
- -20.962770006965624
- 0.05236290377078111
- -1.5247487666271822
- 0.3428438452000102
- -5.43450171987205e-05
---
header:
  stamp:
    sec: 54
    nanosec: 340000000
  frame_id: base_link
name:
- elbow_joint
- shoulder_lift_joint
- shoulder_pan_joint
- wrist_1_joint
- wrist_2_joint
- wrist_3_joint
position:
- 0.38176148849499647
- -1.3524166830089084
- 5.495392912846385e-15
- -1.3523959515556536
- -0.572642232741835
- -1.2370190235969855e-14
velocity:
- 0.3465839725934178
- 0.1987046116326057
- -4.666961261889924e-13
- 0.19755286438603747
- -0.5198759588862938
- 1.0791298410417483e-12
effort:
- -11.931339143350327
- -20.996383528810014
- 0.05196628278120304
- -1.5266973508815211
- 0.34309896251280353
- -5.396508995005658e-05
---
header:
  stamp:
    sec: 54
    nanosec: 342000000
  frame_id: base_link
name:
- elbow_joint
- shoulder_lift_joint
- shoulder_pan_joint
- wrist_1_joint
- wrist_2_joint
- wrist_3_joint
position:
- 0.38245200631234816
- -1.3520210147079637
- 3.590650923712567e-15
- -1.352002356399733
- -0.5736780094678486
- -8.194526948605228e-15
velocity:
- 0.34525890866645254
- 0.19783415046899241
- -3.5241644671946126e-13
- 0.19679757794592662
- -0.517888362996571
- 8.300721221488061e-13
effort:
- -11.949756447842008
- -21.029940190030896
- 0.051616581382461044
- -1.5286234075611598
- 0.3433506252468341
- -5.36318813825064e-05
---
header:
  stamp:
    sec: 54
    nanosec: 343000000
  frame_id: base_link
name:
- elbow_joint
- shoulder_lift_joint
- shoulder_pan_joint
- wrist_1_joint
- wrist_2_joint
- wrist_3_joint
position:
- 0.3831401390146296
- -1.351626913237114
- 2.001122067951543e-15
- -1.3516101207594071
- -0.5747102085212589
- -4.6918392254049454e-15
velocity:
- 0.3440663511322921
- 0.19705073542178286
- -2.5651442775442845e-13
- 0.19611782014999712
- -0.5160995266959293
- 6.20132417639141e-13
effort:
- -11.968084130580523
- -21.063443399401123
- 0.051308829019924236
- -1.5305288295568198
- 0.34359902536987696
- -5.334046973634579e-05
---
header:
  stamp:
    sec: 54
    nanosec: 345000000
  frame_id: base_link
name:
- elbow_joint
- shoulder_lift_joint
- shoulder_pan_joint
- wrist_1_joint
- wrist_2_joint
- wrist_3_joint
position:
- 0.3838261251133481
- -1.3512342219133497
- 6.824507673251921e-16
- -1.3512191086831162
- -0.5757391876693263
- -1.769083438011518e-15
velocity:
- 0.34299304935163955
- 0.1963456618793233
- -1.764348216137801e-13
- 0.19550603813380404
- -0.5144895740254564
- 4.440024736762638e-13
effort:
- -11.986329635665657
- -21.096896343290425
- 0.051038607553417076
- -1.532415306237276
- 0.34384433408653475
- -5.308647717617328e-05
---
header:
  stamp:
    sec: 54
    nanosec: 347000000
  frame_id: base_link
name:
- elbow_joint
- shoulder_lift_joint
- shoulder_pan_joint
- wrist_1_joint
- wrist_2_joint
- wrist_3_joint
position:
- 0.38447684593574666
- -1.3508617997218841
- -1.4073108420376136e-14
- -1.3508481978141178
- -0.576715268902827
- 3.0954126120704477e-14
velocity:
- 0.32536041108246805
- 0.18621109569112024
- -1.0274983988645126e-13
- 0.18545543431945866
- -0.4880406166221392
- 2.7713595307510275e-13
effort:
- -12.004162197910643
- -21.117412454439396
- 0.04597720984719712
- -1.5352678377579871
- 0.34413762249653357
- -4.7840127133146156e-05
---
header:
  stamp:
    sec: 54
    nanosec: 349000000
  frame_id: base_link
name:
- elbow_joint
- shoulder_lift_joint
- shoulder_pan_joint
- wrist_1_joint
- wrist_2_joint
- wrist_3_joint
position:
- 0.3851291613423289
- -1.350488619749652
- -1.2216765216222072e-14
- -1.3504763780323936
- -0.5776937420127105
- 2.6852455728484164e-14
velocity:
- 0.32615770329595695
- 0.186589986117867
- 6.347990709476559e-13
- 0.185909890869619
- -0.48923655494713947
- -1.3577264312836235e-12
effort:
- -12.021415396087658
- -21.150392469782336
- 0.04624555965515044
- -1.5369361811209699
- 0.34436069993982055
- -4.814199091931832e-05
---
header:
  stamp:
    sec: 54
    nanosec: 352000000
  frame_id: base_link
name:
- elbow_joint
- shoulder_lift_joint
- shoulder_pan_joint
- wrist_1_joint
- wrist_2_joint
- wrist_3_joint
position:
- 0.3857829118749207
- -1.3501147577746424
- -1.0606722387995883e-14
- -1.3501037402288403
- -0.5786743678116069
- 2.330258005729036e-14
velocity:
- 0.32687526630026387
- 0.18693098750628465
- 5.417823308040415e-13
- 0.18631890178349195
- -0.490312899452997
- -1.1515996489741553e-12
effort:
- -12.03869112780427
- -21.183372173958023
- 0.046493864089097246
- -1.538608458838602
- 0.34458290791918406
- -4.842229048449166e-05
---
header:
  stamp:
    sec: 54
    nanosec: 354000000
  frame_id: base_link
name:
- elbow_joint
- shoulder_lift_joint
- shoulder_pan_joint
- wrist_1_joint
- wrist_2_joint
- wrist_3_joint
position:
- 0.3864712873540348
- -1.3497212819972118
- 4.3348520653961764e-15
- -1.3497113662059785
- -0.5797069310303737
- -1.0003611081103258e-14
velocity:
- 0.34418773967075467
- 0.1967378887558439
- 4.5389907110671146e-13
- 0.19618701160579427
- -0.5162816095081966
- -9.530605471486098e-13
effort:
- -12.056321195452744
- -21.22936580167135
- 0.05159606299378001
- -1.5392894593759812
- 0.3447526139468607
- -5.376354716729318e-05
---
header:
  stamp:
    sec: 54
    nanosec: 356000000
  frame_id: base_link
name:
- elbow_joint
- shoulder_lift_joint
- shoulder_pan_joint
- wrist_1_joint
- wrist_2_joint
- wrist_3_joint
position:
- 0.38715749195214666
- -1.3493291537974377
- 2.8216124449807913e-15
- -1.3493202295850302
- -0.5807362379275298
- -6.563713408839434e-15
velocity:
- 0.34310229904846895
- 0.19606409988433793
- -2.925836656286762e-13
- 0.1955683104628039
- -0.514653448569889
- 7.113198918773378e-13
effort:
- -12.074475107519959
- -21.262696821644923
- 0.051327380969603834
- -1.5411527477456604
- 0.3449891686347453
- -5.3505817211749e-05
---
header:
  stamp:
    sec: 54
    nanosec: 356000000
  frame_id: base_link
name:
- elbow_joint
- shoulder_lift_joint
- shoulder_pan_joint
- wrist_1_joint
- wrist_2_joint
- wrist_3_joint
position:
- 0.38784174275711264
- -1.3489382384176416
- 1.5561850120025966e-15
- -1.3489302066261788
- -0.5817626141349687
- -3.672713469397238e-15
velocity:
- 0.34212540247629747
- 0.19545768989566065
- -2.1638203381857402e-13
- 0.1950114794154698
- -0.5131881037121205
- 5.383436751937865e-13
effort:
- -12.092554328302478
- -21.2959832330488
- 0.05109198003283967
- -1.5429986976955425
- 0.3452228272689556
- -5.3281822796944036e-05
---
header:
  stamp:
    sec: 54
    nanosec: 359000000
  frame_id: base_link
name:
- elbow_joint
- shoulder_lift_joint
- shoulder_pan_joint
- wrist_1_joint
- wrist_2_joint
- wrist_3_joint
position:
- 0.38845756848201923
- -1.3485826933742329
- -2.6333525060640144e-14
- -1.3485791859625407
- -0.5826863527221425
- 5.909563260692786e-14
velocity:
- 0.30791286227088954
- 0.17591192092330418
- -3.3294898955926744e-12
- 0.17551033153073886
- -0.4618692933779735
- 3.5138350562569087e-12
effort:
- -18.30928766573513
- -37.01312741837338
- 2.2116927864350258
- -2.0895344063505483
- 0.49285352589447556
- -0.000844336191288805
---
header:
  stamp:
    sec: 54
    nanosec: 360000000
  frame_id: base_link
name:
- elbow_joint
- shoulder_lift_joint
- shoulder_pan_joint
- wrist_1_joint
- wrist_2_joint
- wrist_3_joint
position:
- 0.389111811633735
- -1.348209424036851
- -8.591650684747337e-15
- -1.3482062673663424
- -0.5836677174498314
- 1.8963051320938014e-14
velocity:
- 0.32712157598283115
- 0.18663466873545292
- 1.2480719582819155e-12
- 0.18645929829126398
- -0.49068236398156534
- -2.7621689657753024e-12
effort:
- -12.126571201520825
- -21.348870447793782
- 0.04677364823133315
- -1.5472799978089584
- 0.34570350728211424
- -4.8836797638455175e-05
---
header:
  stamp:
    sec: 54
    nanosec: 364000000
  frame_id: base_link
name:
- elbow_joint
- shoulder_lift_joint
- shoulder_pan_joint
- wrist_1_joint
- wrist_2_joint
- wrist_3_joint
position:
- 0.38973396380407355
- -1.3478544816330431
- -2.0730131877161456e-14
- -1.3478516406290557
- -0.5846009457052567
- 4.64804355255275e-14
velocity:
- 0.31107608506378887
- 0.17747120186636378
- 3.67617828539446e-13
- 0.17731336848152612
- -0.4666141275971651
- -7.737074869673677e-13
effort:
- -12.143441388198777
- -21.369238947881914
- 0.042346822841074966
- -1.5498836384814423
- 0.3459655807786545
- -4.422738863883237e-05
---
header:
  stamp:
    sec: 54
    nanosec: 366000000
  frame_id: base_link
name:
- elbow_joint
- shoulder_lift_joint
- shoulder_pan_joint
- wrist_1_joint
- wrist_2_joint
- wrist_3_joint
position:
- 0.39042723409003394
- -1.3474590334698573
- 9.592483635090118e-15
- -1.3474564765665378
- -0.5856408511343977
- -2.2058149004514854e-14
velocity:
- 0.34663514321360867
- 0.19772408167602853
- 9.596750477625093e-13
- 0.19758203161703358
- -0.519952714825901
- -2.1070922784360846e-12
effort:
- -12.160498796593169
- -21.427444285126032
- 0.05263884392954867
- -1.5493948100796147
- 0.34605992927870227
- -5.499584413100383e-05
---
header:
  stamp:
    sec: 54
    nanosec: 367000000
  frame_id: base_link
name:
- elbow_joint
- shoulder_lift_joint
- shoulder_pan_joint
- wrist_1_joint
- wrist_2_joint
- wrist_3_joint
position:
- 0.3911178440145495
- -1.3470651301228176
- 7.409139417863128e-15
- -1.3470628289095283
- -0.5866767660211547
- -1.7004254201861353e-14
velocity:
- 0.34530496224900753
- 0.1969516735167639
- -5.557668041056285e-13
- 0.19682382849123156
- -0.5179574433688844
- 1.3184488223405566e-12
effort:
- -12.178661319578358
- -21.460671721537004
- 0.052300440276424394
- -1.5512570968338963
- 0.34628836415898767
- -5.4659715983967284e-05
---
header:
  stamp:
    sec: 54
    nanosec: 370000000
  frame_id: base_link
name:
- elbow_joint
- shoulder_lift_joint
- shoulder_pan_joint
- wrist_1_joint
- wrist_2_joint
- wrist_3_joint
position:
- 0.39177272628016385
- -1.3466916171104044
- -7.666079433160793e-15
- -1.346689546017887
- -0.5876590894194731
- 1.7370835378512698e-14
velocity:
- 0.32744113268998
- 0.18675650616478398
- -4.388382018882808e-13
- 0.18664144564096546
- -0.4911616990310828
- 1.0443035325380379e-12
effort:
- -12.19640489529334
- -21.48070466339568
- 0.0470867555413903
- -1.554105223716222
- 0.3465659591708448
- -4.9225231208633494e-05
---
header:
  stamp:
    sec: 54
    nanosec: 372000000
  frame_id: base_link
name:
- elbow_joint
- shoulder_lift_joint
- shoulder_pan_joint
- wrist_1_joint
- wrist_2_joint
- wrist_3_joint
position:
- 0.3924621203187565
- -1.3462984553993964
- 6.602750607970094e-15
- -1.3462965914161158
- -0.5886931804774563
- -1.5081465884406954e-14
velocity:
- 0.34469701940934566
- 0.1965808555441617
- 3.076258865697401e-13
- 0.19647730105885808
- -0.5170455291151708
- -6.530678775540366e-13
effort:
- -12.213897510657254
- -21.526695048116043
- 0.052241552395662375
- -1.5547350729155476
- 0.34672017376716685
- -5.463155487928839e-05
---
header:
  stamp:
    sec: 54
    nanosec: 374000000
  frame_id: base_link
name:
- elbow_joint
- shoulder_lift_joint
- shoulder_pan_joint
- wrist_1_joint
- wrist_2_joint
- wrist_3_joint
position:
- 0.3931492416203977
- -1.3459066098594037
- 4.886551810312374e-15
- -1.345904932274152
- -0.5897238624299048
- -1.1085700360395025e-14
velocity:
- 0.34356065081313086
- 0.19592276999378758
- -4.0521622515776734e-13
- 0.1958295709703813
- -0.5153409762160407
- 9.684024415701487e-13
effort:
- -12.231909655759269
- -21.559827351254206
- 0.05196172787588467
- -1.5565613844149258
- 0.346941490399269
- -5.435570267969888e-05
---
header:
  stamp:
    sec: 54
    nanosec: 375000000
  frame_id: base_link
name:
- elbow_joint
- shoulder_lift_joint
- shoulder_pan_joint
- wrist_1_joint
- wrist_2_joint
- wrist_3_joint
position:
- 0.39383431745854014
